<?xml version="1.0" encoding="utf-8" ?> 
<PlaceSearchResponse> 
  <status>0</status>
  <message>ok</message>
  	<total>18</total>
    <results>
			<result>
			<name>杜卡迪(1933老场坊店)</name>
			<location>
				<lat>31.260365</lat>
				<lng>121.49915</lng>
			</location>
							<address>上海虹口区溧阳路611号1933老场房近沙泾路</address>
										<telephone>(021)57575777,(021)65631719</telephone>
										<uid>7818d90f4cca996063180975</uid>
								</result>
			<result>
			<name>上海1933老场坊</name>
			<location>
				<lat>31.260156</lat>
				<lng>121.49838</lng>
			</location>
							<address>上海市虹口区溧阳路611号1933老场坊</address>
										<telephone>(021)68881933</telephone>
										<uid>019deaf830a87e48c056ac32</uid>
								</result>
			<result>
			<name>1933老场坊4号楼</name>
			<location>
				<lat>31.260048</lat>
				<lng>121.49796</lng>
			</location>
							<address>溧阳路611号</address>
										<telephone>(021)68881933</telephone>
										<uid>d0b5b16f7510988031f71d0d</uid>
								</result>
			<result>
			<name>保罗贝香 1933老场坊店</name>
			<location>
				<lat>31.260218</lat>
				<lng>121.498432</lng>
			</location>
							<address>上海虹口区溧阳路611号1933老场坊3号楼101单元近周家嘴路</address>
													<uid>7e4b38c56d800316bc48427e</uid>
								</result>
			<result>
			<name>1933老场坊2号楼</name>
			<location>
				<lat>31.260226</lat>
				<lng>121.49803</lng>
			</location>
							<address>沙泾路29</address>
													<uid>9057b3c26ae5a062d72ce254</uid>
								</result>
			<result>
			<name>1933老场坊5号楼</name>
			<location>
				<lat>31.260172</lat>
				<lng>121.497869</lng>
			</location>
							<address>溧阳路611号</address>
										<telephone>(021)68881933</telephone>
										<uid>7d4967b4b491f9b72efaa7b8</uid>
								</result>
			<result>
			<name>1933老场坊1号楼</name>
			<location>
				<lat>31.260156</lat>
				<lng>121.49838</lng>
			</location>
							<address>沙泾路10号</address>
										<telephone>(021)68881933</telephone>
										<uid>5622ca0d0a01eee19968b463</uid>
								</result>
			<result>
			<name>1933老场坊3号楼</name>
			<location>
				<lat>31.260712</lat>
				<lng>121.498761</lng>
			</location>
							<address>上海市虹口区</address>
										<telephone>(021)68881933</telephone>
										<uid>107c4fbe6de1bfbe725e80ea</uid>
								</result>
			<result>
			<name>1933老场坊空中剧院</name>
			<location>
				<lat>31.260218</lat>
				<lng>121.498433</lng>
			</location>
							<address>虹口区溧阳路611号19333老场坊主楼4楼（近九龙宾馆）</address>
													<uid>9a5f114dad3cfa7f42d63ed7</uid>
								</result>
			<result>
			<name>1933老场坊停车场</name>
			<location>
				<lat>31.25984</lat>
				<lng>121.498251</lng>
			</location>
							<address>溧阳路611号</address>
													<uid>2ca05bdf700b22fb744ff1c9</uid>
								</result>
	  </results>
</PlaceSearchResponse>
