<?xml version="1.0" encoding="utf-8" ?> 
<PlaceSearchResponse> 
  <status>0</status>
  <message>ok</message>
  	<total>176</total>
    <results>
			<result>
			<name>k11购物艺术中心</name>
			<location>
				<lat>31.229383</lat>
				<lng>121.480072</lng>
			</location>
							<address>上海市黄浦区淮海中路300号</address>
										<telephone>(021)23103188</telephone>
										<uid>fa01e937cffb354b764ff197</uid>
								</result>
			<result>
			<name>K11都市农庄</name>
			<location>
				<lat>31.22909</lat>
				<lng>121.480266</lng>
			</location>
							<address>上海市黄浦区淮海中路300号k11购物艺术中心3层</address>
													<uid>563e2e0a3b2bc6706ca3ccf8</uid>
								</result>
			<result>
			<name>新元素(K11购物艺术中心店)</name>
			<location>
				<lat>31.22909</lat>
				<lng>121.48026</lng>
			</location>
							<address>上海市黄浦区淮海中路300号k11购物艺术中心4层</address>
										<telephone>(021)63152070</telephone>
										<uid>dfcee8b9d7e4b25e6c47602e</uid>
								</result>
			<result>
			<name>上海k11购物艺术中心-正门</name>
			<location>
				<lat>31.229043</lat>
				<lng>121.480163</lng>
			</location>
							<address>上海市黄浦区淮海中路300号</address>
													<uid>60ef88304307b9618936ee8c</uid>
								</result>
			<result>
			<name>K11购物艺术中心空中花园</name>
			<location>
				<lat>31.22909</lat>
				<lng>121.480264</lng>
			</location>
							<address>卢湾区淮海中路300号K11购物艺术中心内</address>
													<uid>a4a30ad0985895b3eb56fa18</uid>
								</result>
			<result>
			<name>k11购物艺术中心-东门</name>
			<location>
				<lat>31.229646</lat>
				<lng>121.480457</lng>
			</location>
							<address>淮海中路300号</address>
													<uid>b8fd20b11c3684c1cf04efc9</uid>
								</result>
			<result>
			<name>宝珠奶酪K11购物艺术中心店</name>
			<location>
				<lat>31.22909</lat>
				<lng>121.480266</lng>
			</location>
							<address>卢湾区淮海中路300号K11购物艺术中心B2楼B236号商铺</address>
										<telephone>(021)53865711</telephone>
										<uid>846e16de76b12fa7774ff1ac</uid>
								</result>
			<result>
			<name>k11购物艺术中心-洗手间</name>
			<location>
				<lat>31.229383</lat>
				<lng>121.480072</lng>
			</location>
							<address>上海市黄浦区淮海中路300号</address>
													<uid>1d7d448e50e2a634c3364451</uid>
								</result>
			<result>
			<name>上海k11购物艺术中心-北门</name>
			<location>
				<lat>31.229653</lat>
				<lng>121.479999</lng>
			</location>
							<address>上海市黄浦区淮海中路300号</address>
													<uid>69a1e8a174a460f1fd0eb021</uid>
								</result>
			<result>
			<name>铭品番茄K11购物艺术中心店</name>
			<location>
				<lat>31.22909</lat>
				<lng>121.48026</lng>
			</location>
							<address>上海卢湾区淮海中路300号K11购物艺术中心406号铺(近黄陂南路)</address>
										<telephone>(021)53521775</telephone>
										<uid>eb9d1e78fb7bf651ca09f00c</uid>
								</result>
	  </results>
</PlaceSearchResponse>
