<?xml version="1.0" encoding="utf-8" ?> 
<PlaceSearchResponse> 
  <status>0</status>
  <message>ok</message>
  	<total>8</total>
    <results>
			<result>
			<name>上海浦东射击俱乐部</name>
			<location>
				<lat>31.014407</lat>
				<lng>121.898273</lng>
			</location>
							<address>浦东新区通源路1号滨海旅游度假区内</address>
										<telephone>(021)68290056,(021)58058876,(021)68290062</telephone>
										<uid>bf29b70240b9409a09b93a5d</uid>
								</result>
			<result>
			<name>上海东方射击俱乐部</name>
			<location>
				<lat>31.200901</lat>
				<lng>121.432934</lng>
			</location>
							<address>徐汇区虹桥路663号(近番禺路)</address>
										<telephone>(021)62800408</telephone>
										<uid>feba3386cc8324de54bfff3d</uid>
								</result>
			<result>
			<name>上海彩弹射击预约处</name>
			<location>
				<lat>31.075597</lat>
				<lng>121.261784</lng>
			</location>
							<address>松江区辰花公路338号(辰花公路338号)</address>
										<telephone>15800729165</telephone>
										<uid>1cea15a95f4c84dc07fef55c</uid>
								</result>
			<result>
			<name>红黄蓝射箭桌球俱乐部</name>
			<location>
				<lat>31.272264</lat>
				<lng>121.495095</lng>
			</location>
							<address>上海市虹口区欧阳路196号法兰桥创意园1号楼2层19室（法兰桥商务中心A栋）</address>
										<telephone>(021)56553095</telephone>
										<uid>e0e3da77240c775ef33cbab4</uid>
								</result>
			<result>
			<name>STK射箭主题俱乐部</name>
			<location>
				<lat>31.055475</lat>
				<lng>121.206987</lng>
			</location>
							<address>松江区文汇路955号4楼大平层(近龙源路，上海立信会计学院、华东政法大学)</address>
										<telephone>(021)62687899</telephone>
										<uid>9822755c07352aae09b93a9f</uid>
								</result>
			<result>
			<name>领域射箭运动俱乐部</name>
			<location>
				<lat>31.169398</lat>
				<lng>121.411901</lng>
			</location>
							<address>上海市徐汇区田林路140号15号楼西楼2F-2单元</address>
										<telephone>13901917079</telephone>
										<uid>465eb7613fab9a395cbe8691</uid>
								</result>
			<result>
			<name>领域射箭运动俱乐部</name>
			<location>
				<lat>31.176017</lat>
				<lng>121.41797</lng>
			</location>
							<address>上海市徐汇区田林路140号15号楼西楼2F-2单元</address>
										<telephone>(021)33676335,(021)33676632</telephone>
										<uid>ae47e217e1f7ad625cbe86e0</uid>
								</result>
			<result>
			<name>精英射箭 洛桑射箭俱乐部</name>
			<location>
				<lat>31.312803</lat>
				<lng>121.522796</lng>
			</location>
							<address>上海市杨浦区</address>
													<uid>7c48845474a5e122306212fe</uid>
								</result>
	  </results>
</PlaceSearchResponse>
