<?xml version="1.0" encoding="utf-8" ?> 
<PlaceSearchResponse> 
  <status>0</status>
  <message>ok</message>
  	<total>2775</total>
    <results>
			<result>
			<name>世纪大道</name>
			<location>
				<lat>31.23485</lat>
				<lng>121.533435</lng>
			</location>
							<address>地铁2号线;地铁4号线;地铁6号线;地铁9号线</address>
													<uid>9df590b9321db961dcee8bd9</uid>
								</result>
			<result>
			<name>世纪大道</name>
			<location>
				<lat>31.224627</lat>
				<lng>121.549686</lng>
			</location>
							<address>上海市浦东新区</address>
													<uid>6f6f98ff3ca68ebdda2f28a2</uid>
								</result>
			<result>
			<name>世纪大道浦电路</name>
			<location>
				<lat>31.230692</lat>
				<lng>121.540586</lng>
			</location>
							<address>169路;987路</address>
													<uid>e5a8ac093f5c570ba3acc48a</uid>
								</result>
			<result>
			<name>世纪大道地铁站</name>
			<location>
				<lat>31.23474</lat>
				<lng>121.533602</lng>
			</location>
							<address>169路;790路;987路;陆家嘴金融城4路</address>
													<uid>984397df46f798e550e5c50f</uid>
								</result>
			<result>
			<name>世纪大道(南道)</name>
			<location>
				<lat>31.223902</lat>
				<lng>121.552271</lng>
			</location>
							<address>上海市浦东新区</address>
													<uid>fc36e2f4ea70ca3bb6f42f72</uid>
								</result>
			<result>
			<name>福山路世纪大道</name>
			<location>
				<lat>31.234363</lat>
				<lng>121.535914</lng>
			</location>
							<address>219路;639路;987路</address>
													<uid>84bcec42c68e162ccae33cd9</uid>
								</result>
			<result>
			<name>光大证券世纪大道营业部</name>
			<location>
				<lat>31.236809</lat>
				<lng>121.527243</lng>
			</location>
							<address>浦东新区世纪大道1118号营业部</address>
										<telephone>021-20235720</telephone>
										<uid>e80ab75a07c8d5ee9e82eae0</uid>
								</result>
			<result>
			<name>东泰路世纪大道</name>
			<location>
				<lat>31.24086</lat>
				<lng>121.513207</lng>
			</location>
							<address>陆家嘴旅游环线</address>
													<uid>dc16247121b89c65e315f966</uid>
								</result>
			<result>
			<name>华氏大药房(世纪大道药房)</name>
			<location>
				<lat>31.240777</lat>
				<lng>121.514365</lng>
			</location>
							<address>世纪大道100号上海环球金融中心商场3层</address>
										<telephone>(021)68775108</telephone>
										<uid>764672e5f58219b495ec84a7</uid>
								</result>
			<result>
			<name>世纪大道/向城路(路口)</name>
			<location>
				<lat>31.231815</lat>
				<lng>121.538974</lng>
			</location>
							<address>上海市浦东新区</address>
													<uid>b533ea4aa2e8dd404e6d4682</uid>
								</result>
	  </results>
</PlaceSearchResponse>
