<?xml version="1.0" encoding="utf-8" ?> 
<PlaceSearchResponse> 
  <status>0</status>
  <message>ok</message>
  	<total>10</total>
    <results>
			<result>
			<name>上海天文台</name>
			<location>
				<lat>31.100214</lat>
				<lng>121.198017</lng>
			</location>
							<address>上海市松江区外青松公路9142号上海佘山国家森林公园西佘山园内</address>
										<telephone>(021)64386191</telephone>
										<uid>6108521172c528a0c51b75c7</uid>
								</result>
			<result>
			<name>上海天文台食堂</name>
			<location>
				<lat>31.195078</lat>
				<lng>121.440783</lng>
			</location>
							<address>上海徐汇区南丹路80号(近文定路)</address>
													<uid>593850fbb25d0344df1e5215</uid>
								</result>
			<result>
			<name>中国科学院上海天文台佘山工作站</name>
			<location>
				<lat>31.100453</lat>
				<lng>121.199875</lng>
			</location>
							<address>佘山镇西佘山</address>
										<telephone>(021)57651609</telephone>
										<uid>2322037c67f424df725e80ec</uid>
								</result>
			<result>
			<name>中国科学院上海天文台</name>
			<location>
				<lat>31.195078</lat>
				<lng>121.440783</lng>
			</location>
							<address>上海市徐汇区南丹路80号</address>
													<uid>b91fc4200ed89e26c9fa5fbf</uid>
								</result>
			<result>
			<name>中国科学院上海天文台</name>
			<location>
				<lat>31.195078</lat>
				<lng>121.440792</lng>
			</location>
							<address>徐汇区南丹路80号(南丹东路天钥桥路)</address>
										<telephone>(021)64386191</telephone>
										<uid>f0de1a3801479c6cf90cad09</uid>
								</result>
			<result>
			<name>中国科学院上海天文台佘山工作站（上海天文博物馆</name>
			<location>
				<lat>31.099379</lat>
				<lng>121.1964</lng>
			</location>
							<address>松江区佘山镇西佘山顶</address>
										<telephone>(021)57651723</telephone>
										<uid>36177e3ac95ae264d42ce267</uid>
								</result>
			<result>
			<name>长春希达电子技术有限公司</name>
			<location>
				<lat>31.195078</lat>
				<lng>121.440792</lng>
			</location>
							<address>上海市徐汇区南丹路80号上海天文台科研楼802</address>
													<uid>b964a718eecfda87d5b74e0b</uid>
								</result>
			<result>
			<name>外滩天文台</name>
			<location>
				<lat>31.238824</lat>
				<lng>121.498875</lng>
			</location>
							<address>上海市黄浦区中山东二路1号甲</address>
										<telephone>(021)33130871,(021)58619158</telephone>
										<uid>f9fd606289146b610f0e6bf6</uid>
								</result>
			<result>
			<name>上海天文台佘山工作站售票处</name>
			<location>
				<lat>31.100515</lat>
				<lng>121.199934</lng>
			</location>
							<address>上海市松江区外青松公路9279号佘山国家森林公园内</address>
													<uid>5dcb1f945b4a91936f4760fd</uid>
								</result>
			<result>
			<name>上海商务假期国际旅行社(上海商务假期国际旅行社)</name>
			<location>
				<lat>31.238669</lat>
				<lng>121.498794</lng>
			</location>
							<address>中山东二路1号甲（天文台一楼售票处）</address>
										<telephone>15317636696</telephone>
										<uid>4cdd00f2b4fc3d232102626d</uid>
								</result>
	  </results>
</PlaceSearchResponse>
