<?xml version="1.0" encoding="utf-8" ?> 
<PlaceSearchResponse> 
  <status>0</status>
  <message>ok</message>
  	<total>6</total>
    <results>
			<result>
			<name>上海嘉定博物馆</name>
			<location>
				<lat>31.386693</lat>
				<lng>121.259687</lng>
			</location>
							<address>嘉定区嘉定镇南大街183号</address>
										<telephone>(021)59919581</telephone>
										<uid>8cba4bb03150c0f9ad045716</uid>
								</result>
			<result>
			<name>上海市嘉定武科举博物馆</name>
			<location>
				<lat>31.420573</lat>
				<lng>121.275056</lng>
			</location>
							<address>新建一路2259号</address>
													<uid>6102b9bfa797c8a50c0e6b13</uid>
								</result>
			<result>
			<name>嘉定孔庙</name>
			<location>
				<lat>31.386878</lat>
				<lng>121.259266</lng>
			</location>
							<address>嘉定区南大街183号(近汇龙潭)</address>
										<telephone>(021)59919581</telephone>
										<uid>d6ee8724076c93e1a8f0cdea</uid>
								</result>
			<result>
			<name>上海汽车博物馆</name>
			<location>
				<lat>31.284624</lat>
				<lng>121.176653</lng>
			</location>
							<address>嘉定区安亭博园路7565号(近墨玉南路)</address>
										<telephone>(021)69550055</telephone>
										<uid>4bb049d98f556a5e9900504e</uid>
								</result>
			<result>
			<name>汽车博物馆咖啡厅</name>
			<location>
				<lat>31.284624</lat>
				<lng>121.176649</lng>
			</location>
							<address>上海嘉定区安亭博园路7565号汽车博物馆内(近墨玉南路)</address>
													<uid>d5464cf820b50e4efda778fc</uid>
								</result>
			<result>
			<name>上海一佳精品主题酒店</name>
			<location>
				<lat>31.30688</lat>
				<lng>121.169299</lng>
			</location>
							<address>上海市嘉定区安亭镇墨玉路406号（市民广场对面）</address>
										<telephone>(021)39973589</telephone>
										<uid>7933e7fcee61384988f15d57</uid>
								</result>
	  </results>
</PlaceSearchResponse>
