<?xml version="1.0" encoding="utf-8" ?> 
<PlaceSearchResponse> 
  <status>0</status>
  <message>ok</message>
  	<total>9</total>
    <results>
			<result>
			<name>上海世贸展馆</name>
			<location>
				<lat>31.208028</lat>
				<lng>121.40731</lng>
			</location>
							<address>长宁区兴义路99号(娄山关路兴义路)</address>
										<telephone>(021)62366888</telephone>
										<uid>fd007c5e2e89256da8f72962</uid>
								</result>
			<result>
			<name>上海世贸商城及展馆停车场</name>
			<location>
				<lat>31.207796</lat>
				<lng>121.406609</lng>
			</location>
							<address>延安西路2299</address>
													<uid>c340ba5251c940dcc5effb2f</uid>
								</result>
			<result>
			<name>世茂佘山艾美酒店-乒乓球</name>
			<location>
				<lat>31.101489</lat>
				<lng>121.211825</lng>
			</location>
							<address>佘山林荫新路1288号上海世茂佘山艾美酒店</address>
													<uid>96dcec4d9c45e59249fc8dcb</uid>
								</result>
			<result>
			<name>世茂佘山艾美酒店-排球</name>
			<location>
				<lat>31.101489</lat>
				<lng>121.211825</lng>
			</location>
							<address>佘山林荫新路1288号上海世茂佘山艾美酒店</address>
													<uid>0092714ea9c7342aeaf85351</uid>
								</result>
			<result>
			<name>世茂佘山艾美酒店-游泳池</name>
			<location>
				<lat>31.101489</lat>
				<lng>121.211825</lng>
			</location>
							<address>佘山林荫新路1288号上海世茂佘山艾美酒店</address>
													<uid>16dc0bba27720428bbbd63e5</uid>
								</result>
			<result>
			<name>上海世茂畲山艾美酒店-室外网球场</name>
			<location>
				<lat>31.101489</lat>
				<lng>121.211825</lng>
			</location>
							<address>佘山林荫新路1288号上海世茂佘山艾美酒店</address>
													<uid>0fc991db8c26f870128824e1</uid>
								</result>
			<result>
			<name>上海世茂皇家艾美酒店-室内恒温泳池</name>
			<location>
				<lat>31.240344</lat>
				<lng>121.482718</lng>
			</location>
							<address>南京东路789号上海世茂皇家艾美酒店10楼</address>
										<telephone>(021)33189999</telephone>
										<uid>0a94be6fc5d7c0382fb90836</uid>
								</result>
			<result>
			<name>第九届上海国际汽车改装博览会（世贸展馆）</name>
			<location>
				<lat>31.20721</lat>
				<lng>121.407584</lng>
			</location>
							<address>长宁区延安西路2299号</address>
										<telephone>4008720777</telephone>
										<uid>d51fa49c7dca94c45a3ac888</uid>
								</result>
			<result>
			<name>世茂产品展示中心</name>
			<location>
				<lat>31.071568</lat>
				<lng>121.172685</lng>
			</location>
							<address>上海市松江区</address>
													<uid>13098471a0a504b1abf0cd00</uid>
								</result>
	  </results>
</PlaceSearchResponse>
