<?xml version="1.0" encoding="utf-8" ?> 
<PlaceSearchResponse> 
  <status>0</status>
  <message>ok</message>
  	<total>1708</total>
    <results>
			<result>
			<name>大上海时代广场</name>
			<location>
				<lat>31.230402</lat>
				<lng>121.485782</lng>
			</location>
							<address>上海市卢湾区淮海中路93号</address>
										<telephone>(021)31109393</telephone>
										<uid>92b806d20d110ce779b55ccf</uid>
								</result>
			<result>
			<name>大上海时代广场</name>
			<location>
				<lat>31.230611</lat>
				<lng>121.485376</lng>
			</location>
							<address>卢湾区淮海中路99号（柳林路口）</address>
										<telephone>(021)63910691</telephone>
										<uid>a83efb356fd4de32f703b85e</uid>
								</result>
			<result>
			<name>华润时代广场</name>
			<location>
				<lat>31.233112</lat>
				<lng>121.524411</lng>
			</location>
							<address>上海市浦东新区张杨路500号</address>
										<telephone>(021)58368888</telephone>
										<uid>925c550f853204ab5a3ac82d</uid>
								</result>
			<result>
			<name>哈根达斯(上海时代广场店)</name>
			<location>
				<lat>31.233096</lat>
				<lng>121.524495</lng>
			</location>
							<address>张杨路500号华润时代广场1楼114-115商铺</address>
										<telephone>021-58368712</telephone>
										<uid>0ed20a154d168e9657bfffea</uid>
								</result>
			<result>
			<name>大上海时代广场办公楼</name>
			<location>
				<lat>31.230418</lat>
				<lng>121.485882</lng>
			</location>
							<address>上海黄浦区淮海中路93号</address>
													<uid>33fbfa832a1a4cbf0bf5ebe7</uid>
								</result>
			<result>
			<name>方舟时代广场</name>
			<location>
				<lat>31.391371</lat>
				<lng>121.285167</lng>
			</location>
							<address>嘉定区仓场东路384号</address>
										<telephone>021-61992940,4000879886</telephone>
										<uid>11135b023992d6605bf6bee1</uid>
								</result>
			<result>
			<name>格林豪泰酒店(上海嘉定方舟时代广场店)</name>
			<location>
				<lat>31.387032</lat>
				<lng>121.286297</lng>
			</location>
							<address>嘉定区澄浏中路2572号（墅沟路与澄浏中路丁字路口南侧）</address>
										<telephone>(021)59995599</telephone>
										<uid>dc7752c58e8f160b9d95de16</uid>
								</result>
			<result>
			<name>财富时代广场</name>
			<location>
				<lat>31.249221</lat>
				<lng>121.448568</lng>
			</location>
							<address>长寿路137号、陕西北路1438号</address>
													<uid>1862dee1781d5548990050be</uid>
								</result>
			<result>
			<name>中铁·中环时代广场</name>
			<location>
				<lat>31.303547</lat>
				<lng>121.448589</lng>
			</location>
							<address>江场西路299弄50</address>
													<uid>d9268dfa0c344a503617dc20</uid>
								</result>
			<result>
			<name>华润时代广场</name>
			<location>
				<lat>31.233119</lat>
				<lng>121.524708</lng>
			</location>
							<address>浦东新区张杨路500号（近浦东南路）</address>
										<telephone>(021)58368888</telephone>
										<uid>3c292c5e32c1c889a80dd869</uid>
								</result>
	  </results>
</PlaceSearchResponse>
