<?xml version="1.0" encoding="utf-8" ?> 
<PlaceSearchResponse> 
  <status>0</status>
  <message>ok</message>
  	<total>415</total>
    <results>
			<result>
			<name>外滩观景大道</name>
			<location>
				<lat>31.246473</lat>
				<lng>121.497518</lng>
			</location>
							<address>中山东一路23号附近</address>
													<uid>4ce10ce6e12473dc451a3296</uid>
								</result>
			<result>
			<name>莘庄地铁文化广场北广场</name>
			<location>
				<lat>31.117891</lat>
				<lng>121.390361</lng>
			</location>
							<address>水清南路</address>
													<uid>41572e000a5347c9b45f1e0d</uid>
								</result>
			<result>
			<name>休闲广场</name>
			<location>
				<lat>31.205171</lat>
				<lng>121.638914</lng>
			</location>
							<address>益江路135弄33号2楼张江益江路</address>
													<uid>a74481d6523c7a47f403b8af</uid>
								</result>
			<result>
			<name>徐汇滨江公共开放空间</name>
			<location>
				<lat>31.187379</lat>
				<lng>121.470687</lng>
			</location>
							<address>滨江大道3222号</address>
													<uid>803708f1f879ef0701897213</uid>
								</result>
			<result>
			<name>创智天地广场</name>
			<location>
				<lat>31.311646</lat>
				<lng>121.517883</lng>
			</location>
							<address>大学路63弄、88弄、186弄、187弄、268弄、277弄、伟德路10弄</address>
										<telephone>(021)65500808</telephone>
										<uid>d146b388f26c7ca07402690e</uid>
								</result>
			<result>
			<name>上海西岸音乐节</name>
			<location>
				<lat>31.187989</lat>
				<lng>121.469883</lng>
			</location>
							<address>宛平南路1415号（宛平南路龙华中路）</address>
													<uid>2659e968ce27359c9e95dee9</uid>
								</result>
			<result>
			<name>博乐广场</name>
			<location>
				<lat>31.390038</lat>
				<lng>121.258933</lng>
			</location>
							<address>嘉定区博乐路清河路2号(欧尚对面)</address>
										<telephone>(021)59921730</telephone>
										<uid>81d6a509c57a31596e20b978</uid>
								</result>
			<result>
			<name>轮渡广场</name>
			<location>
				<lat>31.235983</lat>
				<lng>121.509915</lng>
			</location>
							<address>富城路</address>
													<uid>cc788fde38fcea8b89fc06b0</uid>
								</result>
			<result>
			<name>上海电影广场</name>
			<location>
				<lat>31.192738</lat>
				<lng>121.444249</lng>
			</location>
							<address>上海市徐汇区漕溪北路595号</address>
										<telephone>(021)33682222</telephone>
										<uid>af35ec3061480c41213bf225</uid>
								</result>
			<result>
			<name>世纪广场</name>
			<location>
				<lat>31.225863</lat>
				<lng>121.549846</lng>
			</location>
							<address>上海市浦东新区世纪大道2002号</address>
													<uid>d26d6c52718f81e2471a32bf</uid>
								</result>
	  </results>
</PlaceSearchResponse>
