<?xml version="1.0" encoding="utf-8" ?> 
<PlaceSearchResponse> 
  <status>0</status>
  <message>ok</message>
  	<total>7</total>
    <results>
			<result>
			<name>教区佘山天主堂</name>
			<location>
				<lat>31.100616</lat>
				<lng>121.198897</lng>
			</location>
							<address>上海市松江区外青松公路9142号上海佘山国家森林公园西佘山园内</address>
										<telephone>(021)57651651</telephone>
										<uid>8ab0dfc43cb07317d9eced9e</uid>
								</result>
			<result>
			<name>佑之教进</name>
			<location>
				<lat>31.098343</lat>
				<lng>121.202056</lng>
			</location>
							<address>环山路上海教区佘山天主堂附近</address>
													<uid>7c022221e0e2fbbb8c1a8951</uid>
								</result>
			<result>
			<name>佘山天主教堂</name>
			<location>
				<lat>31.103221</lat>
				<lng>121.201962</lng>
			</location>
							<address>上海市松江区外青松公路9142号西佘山园山顶</address>
										<telephone>(021)57827211,(021)57651521</telephone>
										<uid>4ced3c8fc71b48cea20464a7</uid>
								</result>
			<result>
			<name>上海教区天主教圣物供应处</name>
			<location>
				<lat>31.100476</lat>
				<lng>121.199255</lng>
			</location>
							<address>上海市松江区外青松公路9142号国家森林公园西佘山园内</address>
													<uid>ff87a2ac8cb3f0a18f55ec41</uid>
								</result>
			<result>
			<name>中堂</name>
			<location>
				<lat>31.099541</lat>
				<lng>121.199675</lng>
			</location>
							<address>上海市松江区外青松公路9142号上海佘山国家森林公园西佘山园内</address>
													<uid>37763253da45769b14b54bcc</uid>
								</result>
			<result>
			<name>上海佘山猫心一号泰晤士别墅</name>
			<location>
				<lat>31.044508</lat>
				<lng>121.200056</lng>
			</location>
							<address>松江区三新北路900弄泰晤士小镇935号(泰晤士小镇内教堂)</address>
										<telephone>13636351575</telephone>
										<uid>07139023c8a98c580f0a7043</uid>
								</result>
			<result>
			<name>上海天文博物馆</name>
			<location>
				<lat>31.100693</lat>
				<lng>121.199536</lng>
			</location>
							<address>松江区外青松公路西佘山公园内(近佘山天主教堂)</address>
										<telephone>(021)57651723</telephone>
										<uid>36d1ce1cd44ebb19a6da392f</uid>
								</result>
	  </results>
</PlaceSearchResponse>
