<?xml version="1.0" encoding="utf-8" ?> 
<PlaceSearchResponse> 
  <status>0</status>
  <message>ok</message>
  	<total>105</total>
    <results>
			<result>
			<name>世纪花园</name>
			<location>
				<lat>31.218343</lat>
				<lng>121.562763</lng>
			</location>
							<address>浦东区浦东花木路1108号</address>
													<uid>963de97803b9492eb320a8b3</uid>
								</result>
			<result>
			<name>浦东世纪花园一期</name>
			<location>
				<lat>31.217108</lat>
				<lng>121.563597</lng>
			</location>
							<address>上海市浦东新区银霄路100弄</address>
													<uid>1cea15a9108543b807fef50b</uid>
								</result>
			<result>
			<name>浦东世纪花园商铺</name>
			<location>
				<lat>31.217934</lat>
				<lng>121.565466</lng>
			</location>
							<address>浦东梅花路999弄</address>
													<uid>fb95373b7abdea9035b06c82</uid>
								</result>
			<result>
			<name>绿地世纪城一期绿地世纪花园</name>
			<location>
				<lat>31.237982</lat>
				<lng>121.426376</lng>
			</location>
							<address>绿地世纪花园位于普陀宁夏路287号</address>
													<uid>74866f6d1884c3d03ce23161</uid>
								</result>
			<result>
			<name>齐盛世纪花园</name>
			<location>
				<lat>31.083824</lat>
				<lng>121.409999</lng>
			</location>
							<address>齐盛世纪花园位于闵行颛桥镇、贵都路</address>
													<uid>b04cacb048bb5b6beb56fa55</uid>
								</result>
			<result>
			<name>浦东世纪花园</name>
			<location>
				<lat>31.217108</lat>
				<lng>121.563597</lng>
			</location>
							<address>银霄路100弄1～30号</address>
													<uid>5d083d6cbeed814fc8213d06</uid>
								</result>
			<result>
			<name>世纪花园二期</name>
			<location>
				<lat>31.219177</lat>
				<lng>121.565679</lng>
			</location>
							<address>花木路1230弄56临</address>
													<uid>a1ef4a62509bb9e09c9d68ab</uid>
								</result>
			<result>
			<name>浦东世纪花园(东区)</name>
			<location>
				<lat>31.217919</lat>
				<lng>121.565442</lng>
			</location>
							<address>银霄路39弄1-11号</address>
													<uid>fa82a9b9573e8b6549fc8dd4</uid>
								</result>
			<result>
			<name>上海新国博世纪花园（日租公寓）</name>
			<location>
				<lat>31.217015</lat>
				<lng>121.56349</lng>
			</location>
							<address>上海浦东新区银霄路100弄9号</address>
													<uid>e1c62808c04dc629fea7786b</uid>
								</result>
			<result>
			<name>浦东世纪花园西区</name>
			<location>
				<lat>31.217</lat>
				<lng>121.562418</lng>
			</location>
							<address>银霄路100弄1-30号</address>
													<uid>e4488901cd5ca9f4fb221311</uid>
								</result>
	  </results>
</PlaceSearchResponse>
