<?xml version="1.0" encoding="utf-8" ?> 
<PlaceSearchResponse> 
  <status>0</status>
  <message>ok</message>
  	<total>28</total>
    <results>
			<result>
			<name>长青公园</name>
			<location>
				<lat>31.17991</lat>
				<lng>121.495217</lng>
			</location>
							<address>上海市浦东新区</address>
													<uid>e889a74479fba4b48705bfb7</uid>
								</result>
			<result>
			<name>长青公园</name>
			<location>
				<lat>31.178808</lat>
				<lng>121.495328</lng>
			</location>
							<address>818路</address>
													<uid>2106dbdca0064bff980050a2</uid>
								</result>
			<result>
			<name>长青公园</name>
			<location>
				<lat>31.179107</lat>
				<lng>121.494746</lng>
			</location>
							<address>浦东新区长清路11号（昌里路口）</address>
										<telephone>(021)68589980</telephone>
										<uid>5109c3498784d4f286420ea3</uid>
								</result>
			<result>
			<name>长青公园-西门</name>
			<location>
				<lat>31.179184</lat>
				<lng>121.494994</lng>
			</location>
							<address>长清路20-1附近</address>
													<uid>8eede88ea262da5b88db7331</uid>
								</result>
			<result>
			<name>长青公园-南门</name>
			<location>
				<lat>31.178976</lat>
				<lng>121.494948</lng>
			</location>
							<address>昌里路长清路路口</address>
										<telephone>(021)68589980</telephone>
										<uid>7df5e7fd84738ea1eddfcaa5</uid>
								</result>
			<result>
			<name>长青公园-北门</name>
			<location>
				<lat>31.180157</lat>
				<lng>121.494537</lng>
			</location>
							<address>昌里路长清路路口</address>
										<telephone>(021)68589980</telephone>
										<uid>d0cb7e66f8d363302dfaa72b</uid>
								</result>
			<result>
			<name>上钢五村炒面</name>
			<location>
				<lat>31.179014</lat>
				<lng>121.496355</lng>
			</location>
							<address>浦东新区昌里路上钢五村弄堂内(近长青公园)</address>
													<uid>020b98b8e242a4a6ed74f89c</uid>
								</result>
			<result>
			<name>兄弟龙虾馆</name>
			<location>
				<lat>31.179122</lat>
				<lng>121.496255</lng>
			</location>
							<address>浦东新区昌里路359号（近长青公园）</address>
													<uid>08fc93dfa87397889b68b408</uid>
								</result>
			<result>
			<name>明和豆浆</name>
			<location>
				<lat>31.179122</lat>
				<lng>121.496255</lng>
			</location>
							<address>浦东新区昌里路359号(近长青公园)</address>
													<uid>1286a6d9dcbc672cf2193738</uid>
								</result>
			<result>
			<name>米缇台湾小吃</name>
			<location>
				<lat>31.179076</lat>
				<lng>121.494763</lng>
			</location>
							<address>浦东新区长清路13号长青公园对面(近昌里路)</address>
													<uid>9f97b1c58a6bb41fb64f5474</uid>
								</result>
	  </results>
</PlaceSearchResponse>
