<?xml version="1.0" encoding="utf-8" ?> 
<PlaceSearchResponse> 
  <status>0</status>
  <message>ok</message>
  	<total>11</total>
    <results>
			<result>
			<name>上海国庆汽车展</name>
			<location>
				<lat>31.186954</lat>
				<lng>121.496745</lng>
			</location>
							<address>国展路1099号世博展览馆（中国馆对面）</address>
										<telephone>(021)20893666</telephone>
										<uid>8738eca509f5cfb8a0acc492</uid>
								</result>
			<result>
			<name>上海福庭车展保洁公司嘉定区分公司</name>
			<location>
				<lat>31.339871</lat>
				<lng>121.232105</lng>
			</location>
							<address>嘉定区伊宁路2000号</address>
										<telephone>(021)36557633,15021539456</telephone>
										<uid>5674ab5f0cb8c5e7b6f42fc2</uid>
								</result>
			<result>
			<name>车展保洁</name>
			<location>
				<lat>31.282888</lat>
				<lng>121.543588</lng>
			</location>
							<address>杨浦区周家嘴路3350号(近黄兴路)</address>
										<telephone>(021)50907242</telephone>
										<uid>957fb51285e59ff91d1d1153</uid>
								</result>
			<result>
			<name>CAS改装车展</name>
			<location>
				<lat>31.286106</lat>
				<lng>121.174694</lng>
			</location>
							<address>海市嘉定区博园路7575号（上海国际汽车会展中心）</address>
										<telephone>4000216669</telephone>
										<uid>b579ce3a69fc05d051e5c576</uid>
								</result>
			<result>
			<name>上海武杰车展保洁公司</name>
			<location>
				<lat>31.180065</lat>
				<lng>121.501533</lng>
			</location>
							<address>上南路205号</address>
										<telephone>021-56020706,</telephone>
										<uid>f3b899d15e290f7730169b7d</uid>
								</result>
			<result>
			<name>上海宏旺车展保洁公司（浦东店）</name>
			<location>
				<lat>31.166771</lat>
				<lng>121.506896</lng>
			</location>
							<address>上南路3055</address>
										<telephone>(021)61993432,13564701571</telephone>
										<uid>9db63ee02e5d9ca53010af41</uid>
								</result>
			<result>
			<name>上海联翔车展保洁公司浦东分部</name>
			<location>
				<lat>31.22218</lat>
				<lng>121.673406</lng>
			</location>
							<address>上海浦东新区高科东路888号</address>
										<telephone>(021)66509885,13122882839</telephone>
										<uid>42c6df9848d3c8eb45e274be</uid>
								</result>
			<result>
			<name>AUTO SHOW国际汽车展</name>
			<location>
				<lat>31.186954</lat>
				<lng>121.496743</lng>
			</location>
							<address>上海市浦东新区国展路1099号（近中国馆）</address>
													<uid>e9819ada19c9dea29ee321fc</uid>
								</result>
			<result>
			<name>上海联翔车展保洁公司浦东店</name>
			<location>
				<lat>31.264231</lat>
				<lng>121.628671</lng>
			</location>
							<address>上海浦东新区新金桥路946号</address>
										<telephone>(021)66509885,13122882839</telephone>
										<uid>b5d82b284d6bcb9aa4c756bf</uid>
								</result>
			<result>
			<name>Ck Storm(中环百联店)</name>
			<location>
				<lat>31.251706</lat>
				<lng>121.389353</lng>
			</location>
							<address>真光路1288号中环百联2楼（从浦发银行旁边的大门进，车展上面）</address>
										<telephone>(021)56317531</telephone>
										<uid>d85266e271927e09ae080fc4</uid>
								</result>
	  </results>
</PlaceSearchResponse>
