<?xml version="1.0" encoding="utf-8" ?> 
<PlaceSearchResponse> 
  <status>0</status>
  <message>ok</message>
  	<total>7</total>
    <results>
			<result>
			<name>腾马葡萄</name>
			<location>
				<lat>31.384158</lat>
				<lng>121.329294</lng>
			</location>
							<address>上海嘉定区马陆镇大宏村(近马陆葡萄主题公园)</address>
										<telephone>18001700210</telephone>
										<uid>7d7333b62cd7d49bb45f1e25</uid>
								</result>
			<result>
			<name>应和农家乐饭店</name>
			<location>
				<lat>31.386061</lat>
				<lng>121.315561</lng>
			</location>
							<address>上海嘉定区马陆镇大裕村大治路68号(近马陆葡萄主题公园)</address>
										<telephone>(021)59516064</telephone>
										<uid>7cb4242564ea1521b34c49d4</uid>
								</result>
			<result>
			<name>红葡萄餐厅</name>
			<location>
				<lat>31.386439</lat>
				<lng>121.322418</lng>
			</location>
							<address>上海嘉定区马陆镇大治路27A马陆葡萄主题公园内(浏翔公路)</address>
										<telephone>(021)59510888</telephone>
										<uid>0523a14109a4b704b33c81e8</uid>
								</result>
			<result>
			<name>上海圣华物流有限公司</name>
			<location>
				<lat>31.339702</lat>
				<lng>121.314569</lng>
			</location>
							<address>嘉定区马陆镇思义路1625号(近马陆葡萄主题公园)</address>
										<telephone>(021)51872990,4001175656</telephone>
										<uid>f4a33da9e0e3ca083110af90</uid>
								</result>
			<result>
			<name>美家乐葡萄园(大冶路店)</name>
			<location>
				<lat>31.379996</lat>
				<lng>121.314704</lng>
			</location>
							<address>上海市嘉定区马陆镇大治路37号（马陆主题公园旁）</address>
										<telephone>18918192311</telephone>
										<uid>cf700ef0221d9edc3310afde</uid>
								</result>
			<result>
			<name>上海奇裕实业有限公司</name>
			<location>
				<lat>31.386971</lat>
				<lng>121.322564</lng>
			</location>
							<address>戬浜镇马陆葡萄主题公园附近</address>
													<uid>f1ffe39c9bcc6f2412882420</uid>
								</result>
			<result>
			<name>上海凯诚实业有限公司</name>
			<location>
				<lat>31.386971</lat>
				<lng>121.322573</lng>
			</location>
							<address>戬浜镇马陆葡萄主题公园附近</address>
													<uid>c88a4e86c1bb75f0283a9f0f</uid>
								</result>
	  </results>
</PlaceSearchResponse>
