<?xml version="1.0" encoding="utf-8" ?> 
<PlaceSearchResponse> 
  <status>0</status>
  <message>ok</message>
  	<total>252</total>
    <results>
			<result>
			<name>上海文化广场</name>
			<location>
				<lat>31.218343</lat>
				<lng>121.468501</lng>
			</location>
							<address>复兴中路597号</address>
										<telephone>(021)64729000</telephone>
										<uid>d6c5d9917d0787f131169beb</uid>
								</result>
			<result>
			<name>文化广场</name>
			<location>
				<lat>30.919231</lat>
				<lng>121.462659</lng>
			</location>
							<address>南桥3路</address>
													<uid>a4547f75d66b3cb76140a909</uid>
								</result>
			<result>
			<name>文化广场</name>
			<location>
				<lat>30.942663</lat>
				<lng>121.735501</lng>
			</location>
							<address>四团1线</address>
													<uid>0e904bfaccf4daa817c8f604</uid>
								</result>
			<result>
			<name>文化广场</name>
			<location>
				<lat>31.38042</lat>
				<lng>121.304846</lng>
			</location>
							<address>上海市嘉定区</address>
													<uid>4ce10ce6bfb549dc441a3207</uid>
								</result>
			<result>
			<name>文化广场</name>
			<location>
				<lat>30.892736</lat>
				<lng>121.022963</lng>
			</location>
							<address>上海市金山区</address>
													<uid>50fb64ff3651225ce9f85330</uid>
								</result>
			<result>
			<name>光啟文化广场</name>
			<location>
				<lat>31.191696</lat>
				<lng>121.44772</lng>
			</location>
							<address>上海市徐汇路斜土路2899甲号</address>
													<uid>e94137182dc852bbfe0eb090</uid>
								</result>
			<result>
			<name>文化广场(南桥路)</name>
			<location>
				<lat>30.92049</lat>
				<lng>121.463399</lng>
			</location>
							<address>解放西路000号</address>
													<uid>f9fd6062ad644f1e0f0e6b0b</uid>
								</result>
			<result>
			<name>上海文化广场剧场</name>
			<location>
				<lat>31.218652</lat>
				<lng>121.468725</lng>
			</location>
							<address>复兴中路597号</address>
										<telephone>(021)64729000</telephone>
										<uid>5a9482e6be3fc9f317c8f631</uid>
								</result>
			<result>
			<name>闵行春申文化广场</name>
			<location>
				<lat>31.111128</lat>
				<lng>121.395682</lng>
			</location>
							<address>闵行区名都路85号(近莘庄地铁南广场)</address>
										<telephone>(021)54604660</telephone>
										<uid>ef773a0f6e64f849220220d3</uid>
								</result>
			<result>
			<name>七宝文化广场</name>
			<location>
				<lat>31.159355</lat>
				<lng>121.363329</lng>
			</location>
							<address>上海市闵行区新镇路1205号七宝教寺内</address>
													<uid>bba873880c70e8ddbca82212</uid>
								</result>
	  </results>
</PlaceSearchResponse>
