<?xml version="1.0" encoding="utf-8" ?> 
<PlaceSearchResponse> 
  <status>0</status>
  <message>ok</message>
  	<total>636</total>
    <results>
			<result>
			<name>上海虹桥机场</name>
			<location>
				<lat>31.199982</lat>
				<lng>121.352605</lng>
			</location>
							<address>上海市长宁区虹桥路2550号</address>
										<telephone>(021)62688899</telephone>
										<uid>d6411a264581c801e81e97a5</uid>
								</result>
			<result>
			<name>上海虹桥机场-1号航站楼</name>
			<location>
				<lat>31.200198</lat>
				<lng>121.355573</lng>
			</location>
							<address>上海市长宁区虹桥路2550号</address>
													<uid>be1ea5ef579f3cc214948e0c</uid>
								</result>
			<result>
			<name>上海虹桥机场-2号航站楼</name>
			<location>
				<lat>31.199079</lat>
				<lng>121.333306</lng>
			</location>
							<address>虹桥路2550号上海虹桥机场</address>
										<telephone>(021)22382435</telephone>
										<uid>1aed82a1548307558615412b</uid>
								</result>
			<result>
			<name>格林联盟上海虹桥机场西郊百联酒店</name>
			<location>
				<lat>31.208777</lat>
				<lng>121.376193</lng>
			</location>
							<address>长宁区剑河路727号（剑河路与可乐东路交汇口）</address>
										<telephone>(021)52138008</telephone>
										<uid>8b43a51af0a09d8d1df74df7</uid>
								</result>
			<result>
			<name>上海虹桥机场2号航站楼-到达</name>
			<location>
				<lat>31.202862</lat>
				<lng>121.331704</lng>
			</location>
							<address>虹桥路2550号上海虹桥机场</address>
													<uid>5f000746b017e5aa1fe99909</uid>
								</result>
			<result>
			<name>上海虹桥机场1号航站楼-国内到达</name>
			<location>
				<lat>31.200167</lat>
				<lng>121.355556</lng>
			</location>
							<address>虹桥路2550号上海虹桥机场</address>
													<uid>c07e9c66756757b7d618b7f4</uid>
								</result>
			<result>
			<name>上海虹桥机场华港雅阁酒店)</name>
			<location>
				<lat>31.198901</lat>
				<lng>121.355478</lng>
			</location>
							<address>长宁区空港一路458号虹桥机场候机楼内(迎宾一路附近)</address>
										<telephone>(021)62687788</telephone>
										<uid>d305db1fafcc7827922ca3e0</uid>
								</result>
			<result>
			<name>上海虹桥机场1号航站楼-国内出发</name>
			<location>
				<lat>31.200191</lat>
				<lng>121.353138</lng>
			</location>
							<address>虹桥路2550号上海虹桥机场</address>
													<uid>ddd9d11c9703389b01294fed</uid>
								</result>
			<result>
			<name>上海虹桥机场和颐酒店</name>
			<location>
				<lat>31.189781</lat>
				<lng>121.363479</lng>
			</location>
							<address>长宁区沪青平公路38号（临近虹桥机场）</address>
										<telephone>(021)24093333</telephone>
										<uid>6a18b00aafd6f799901fc962</uid>
								</result>
			<result>
			<name>上海虹桥机场2号航站楼-出发</name>
			<location>
				<lat>31.199565</lat>
				<lng>121.333187</lng>
			</location>
							<address>虹桥路2550号上海虹桥机场</address>
													<uid>37d8c3fec198b5dd931fc9d0</uid>
								</result>
	  </results>
</PlaceSearchResponse>
