<?xml version="1.0" encoding="utf-8" ?> 
<PlaceSearchResponse> 
  <status>0</status>
  <message>ok</message>
  	<total>53</total>
    <results>
			<result>
			<name>西林寺</name>
			<location>
				<lat>31.012898</lat>
				<lng>121.23068</lng>
			</location>
							<address>松江区中山中路666号</address>
										<telephone>(021)57813454</telephone>
										<uid>e85e252772e2a55295f08ce4</uid>
								</result>
			<result>
			<name>西林寺</name>
			<location>
				<lat>31.012782</lat>
				<lng>121.230459</lng>
			</location>
							<address>松江3路;松江4路</address>
													<uid>7b25078ee8b3aa3281a12eeb</uid>
								</result>
			<result>
			<name>西林寺</name>
			<location>
				<lat>31.012898</lat>
				<lng>121.230683</lng>
			</location>
							<address>松江区中山中路666号</address>
										<telephone>(021)57813454</telephone>
										<uid>6a5c6f039694d87ff7b916a5</uid>
								</result>
			<result>
			<name>西林禅寺（西林素斋馆）</name>
			<location>
				<lat>31.013084</lat>
				<lng>121.230285</lng>
			</location>
							<address>上海松江区中山中路666号西林禅寺内</address>
										<telephone>(021)57716771</telephone>
										<uid>6ed3083af4fc14ae2a3a9ff6</uid>
								</result>
			<result>
			<name>西林禅寺-南门</name>
			<location>
				<lat>31.012929</lat>
				<lng>121.23074</lng>
			</location>
							<address>华亭老街西</address>
													<uid>b054d5fd7655ec6148cc4a2c</uid>
								</result>
			<result>
			<name>星尚巴黎婚纱摄影</name>
			<location>
				<lat>31.012116</lat>
				<lng>121.230947</lng>
			</location>
							<address>上海松江华亭老街缸甏巷197号（西林寺对面）...</address>
										<telephone>13818913938</telephone>
										<uid>69ba8ed19aca98f6aeb22a85</uid>
								</result>
			<result>
			<name>新锐婚纱摄影机构</name>
			<location>
				<lat>31.01255</lat>
				<lng>121.230875</lng>
			</location>
							<address>松江区中山中路511号2楼（西林寺对面）</address>
										<telephone>(021)57822994</telephone>
										<uid>9ef6915459e6ec2e4354d78e</uid>
								</result>
			<result>
			<name>都可茶饮(中山中路店)</name>
			<location>
				<lat>31.012898</lat>
				<lng>121.232218</lng>
			</location>
							<address>松江区中山中路562号（西林寺对面）</address>
										<telephone>15900751098</telephone>
										<uid>5508504d7b42a6d2c6f025ab</uid>
								</result>
			<result>
			<name>品味麻辣香锅</name>
			<location>
				<lat>31.012333</lat>
				<lng>121.229703</lng>
			</location>
							<address>缸甏巷（近中心医院，西林寺对面胡同内）</address>
										<telephone>(021)57721708,15201869209</telephone>
										<uid>be9dba0f50832ae3067ce8eb</uid>
								</result>
			<result>
			<name>虾友汇</name>
			<location>
				<lat>31.012944</lat>
				<lng>121.229932</lng>
			</location>
							<address>松江区中山中路696号（西林寺西侧10米）</address>
										<telephone>(021)57716777</telephone>
										<uid>53e79d9a33214e4d9cf7798e</uid>
								</result>
	  </results>
</PlaceSearchResponse>
