<?xml version="1.0" encoding="utf-8" ?> 
<PlaceSearchResponse> 
  <status>0</status>
  <message>ok</message>
  	<total>201</total>
    <results>
			<result>
			<name>虹口足球场高尔夫练习场</name>
			<location>
				<lat>31.277148</lat>
				<lng>121.486697</lng>
			</location>
							<address>虹口区东江湾路444号(虹口足球场内近5号门)</address>
										<telephone>(021)56500321</telephone>
										<uid>7ae1bc6d5f4545fd09a8d40a</uid>
								</result>
			<result>
			<name>上海虹口足球场长途客运站</name>
			<location>
				<lat>31.277634</lat>
				<lng>121.48612</lng>
			</location>
							<address>东江湾路444号虹口足球场2号楼梯下</address>
										<telephone>(021)56966765</telephone>
										<uid>cf8e1dfc91d0ddfd9d95defe</uid>
								</result>
			<result>
			<name>上海虹口足球场店</name>
			<location>
				<lat>31.284354</lat>
				<lng>121.480504</lng>
			</location>
							<address>虹口区广中路319号（靠近水电路）</address>
										<telephone>021-65668170</telephone>
										<uid>785c044dcbe29e7c33169bcf</uid>
								</result>
			<result>
			<name>虹口糕团(四川北路店)</name>
			<location>
				<lat>31.274679</lat>
				<lng>121.48739</lng>
			</location>
							<address>上海虹口区四川北路2305号-2(近虹口足球场站)</address>
										<telephone>(021)65871454</telephone>
										<uid>435d7aea87d4d02c5abbbc55</uid>
								</result>
			<result>
			<name>如家快捷酒店上海虹口足球场天通庵路店</name>
			<location>
				<lat>31.270389</lat>
				<lng>121.48374</lng>
			</location>
							<address>天通庵路690号</address>
										<telephone>(021)31109299</telephone>
										<uid>770e0ce5abfa9127a3acc489</uid>
								</result>
			<result>
			<name>上海虹口糕团食品厂四川路门市部</name>
			<location>
				<lat>31.276361</lat>
				<lng>121.486336</lng>
			</location>
							<address>虹口区东江湾路444-450号虹口足球场2号楼梯下(近四川北路)</address>
										<telephone>(021)66520031</telephone>
										<uid>48114ded13132f562806ce07</uid>
								</result>
			<result>
			<name>海友酒店（上海虹口足球场店）</name>
			<location>
				<lat>31.274077</lat>
				<lng>121.486174</lng>
			</location>
							<address>上海市虹口区东江湾路199-221号（靠近虹口足球场正门马路斜对面）</address>
										<telephone>(021)61736099</telephone>
										<uid>1c84b137ca30e7def60e77db</uid>
								</result>
			<result>
			<name>上海虹口足球场</name>
			<location>
				<lat>31.277256</lat>
				<lng>121.487552</lng>
			</location>
							<address>虹口区东江湾路444号虹口足球场内（近四川路）</address>
										<telephone>4006610708</telephone>
										<uid>af0b0f2031ca833dbca822f8</uid>
								</result>
			<result>
			<name>学大教育(上海虹口足球场校区)</name>
			<location>
				<lat>31.272596</lat>
				<lng>121.486801</lng>
			</location>
							<address>上海虹口区东江湾路188号（空间188）D座2楼（靠近虹口足球场）</address>
										<telephone>4006254008</telephone>
										<uid>1c5f05056d4bf8733a13fde6</uid>
								</result>
			<result>
			<name>汉庭酒店(上海虹口足球场店)</name>
			<location>
				<lat>31.277526</lat>
				<lng>121.48556</lng>
			</location>
							<address>上海市虹口区西江湾路420号（虹口足球场正门马路对面）</address>
										<telephone>021-36356060</telephone>
										<uid>1020060f61a6ecbf1894c6c7</uid>
								</result>
	  </results>
</PlaceSearchResponse>
