<?xml version="1.0" encoding="utf-8" ?> 
<PlaceSearchResponse> 
  <status>0</status>
  <message>ok</message>
  	<total>9</total>
    <results>
			<result>
			<name>东方假日田园</name>
			<location>
				<lat>31.400872</lat>
				<lng>121.335633</lng>
			</location>
							<address>宝山区联杨路3888号东方假日田园内(宝安公路联杨路)</address>
										<telephone>(021)56018688</telephone>
										<uid>825e08171be159e00e3ddadb</uid>
								</result>
			<result>
			<name>东方假日田园</name>
			<location>
				<lat>31.400087</lat>
				<lng>121.33677</lng>
			</location>
							<address>宝山区罗店镇张墅村联杨路3888号（近沪太路）</address>
										<telephone>(021)56018688,(021)86018588</telephone>
										<uid>fd1f4a3840f11c6082288a95</uid>
								</result>
			<result>
			<name>东方假日田园农家菜</name>
			<location>
				<lat>31.400171</lat>
				<lng>121.336623</lng>
			</location>
							<address>上海宝山区联杨路3888号东方假日田园内(宝安公路联杨路)</address>
										<telephone>(021)66011777,(021)56018688</telephone>
										<uid>d5077f1d766c7edef4231001</uid>
								</result>
			<result>
			<name>东方假日田园售票亭</name>
			<location>
				<lat>31.400194</lat>
				<lng>121.336838</lng>
			</location>
							<address>联杨路3888号附近</address>
													<uid>f23de3e2e20b62662806ce13</uid>
								</result>
			<result>
			<name>东方假日田园售票点</name>
			<location>
				<lat>31.400287</lat>
				<lng>121.336426</lng>
			</location>
							<address>联杨路3888临</address>
													<uid>5eea98c920d78e4f2fb17ed7</uid>
								</result>
			<result>
			<name>东方假日田园-南门</name>
			<location>
				<lat>31.40014</lat>
				<lng>121.336516</lng>
			</location>
							<address>联杨路3888临</address>
										<telephone>(021)56018698</telephone>
										<uid>c0f7f875ffcc4313d8131820</uid>
								</result>
			<result>
			<name>东方假日田园-停车场</name>
			<location>
				<lat>31.400279</lat>
				<lng>121.336667</lng>
			</location>
							<address>联杨路3888临</address>
													<uid>8184560a17f058ce45572671</uid>
								</result>
			<result>
			<name>东方假日田园-北门</name>
			<location>
				<lat>31.402337</lat>
				<lng>121.335682</lng>
			</location>
							<address>上海市宝山区</address>
													<uid>5e82a85489ad28804e2fdfdb</uid>
								</result>
			<result>
			<name>上海帝鼎投资管理有限公司</name>
			<location>
				<lat>31.400087</lat>
				<lng>121.33677</lng>
			</location>
							<address>上海市宝山区罗店镇联杨路3888号东方假日田园(美兰湖西侧)</address>
										<telephone>(021)51823878</telephone>
										<uid>ea080527f88007a6260bd0d4</uid>
								</result>
	  </results>
</PlaceSearchResponse>
