<?xml version="1.0" encoding="utf-8" ?> 
<PlaceSearchResponse> 
  <status>0</status>
  <message>ok</message>
  	<total>10</total>
    <results>
			<result>
			<name>永福园陵</name>
			<location>
				<lat>30.925006</lat>
				<lng>121.710839</lng>
			</location>
							<address>奉城镇洪庙社区洪东路333号</address>
										<telephone>(021)57562684</telephone>
										<uid>255d33a69c6e332f9a0050c5</uid>
								</result>
			<result>
			<name>上海永福园陵办事处(莲安东路)</name>
			<location>
				<lat>31.187116</lat>
				<lng>121.563526</lng>
			</location>
							<address>莲安东路67号</address>
										<telephone>(021)68945467</telephone>
										<uid>883e9f8c1929a839223bf2b1</uid>
								</result>
			<result>
			<name>永福园陵办事处</name>
			<location>
				<lat>31.201635</lat>
				<lng>121.5222</lng>
			</location>
							<address>兰陵路11-2临</address>
										<telephone>(021)58704505</telephone>
										<uid>4966bfa2e67ddbd8601c6717</uid>
								</result>
			<result>
			<name>永福园陵(公墓)办事处</name>
			<location>
				<lat>31.290056</lat>
				<lng>121.614994</lng>
			</location>
							<address>双桥路926号</address>
										<telephone>(021)58659493</telephone>
										<uid>7905b921e5f439fc740269c9</uid>
								</result>
			<result>
			<name>永福园陵办事处(西宝兴路)</name>
			<location>
				<lat>31.274193</lat>
				<lng>121.475448</lng>
			</location>
							<address>西宝兴路842</address>
										<telephone>(021)66299912</telephone>
										<uid>9f357e231eb2e07b2202622a</uid>
								</result>
			<result>
			<name>永福园陵办事处(兰陵路)</name>
			<location>
				<lat>31.201743</lat>
				<lng>121.522036</lng>
			</location>
							<address>兰陵路11-2</address>
										<telephone>(021)58704505</telephone>
										<uid>33b93d76892cac4779b55c20</uid>
								</result>
			<result>
			<name>永福园陵公墓办事处</name>
			<location>
				<lat>31.16416</lat>
				<lng>121.501451</lng>
			</location>
							<address>灵岩南路206-2</address>
										<telephone>(021)68311531</telephone>
										<uid>599679e903bbaf8aed74f8be</uid>
								</result>
			<result>
			<name>永福园陵公墓办事处(博兴路)</name>
			<location>
				<lat>31.272974</lat>
				<lng>121.602077</lng>
			</location>
							<address>博兴路1205</address>
										<telephone>(021)68714129</telephone>
										<uid>3c8d6cf2f263b1e029fc489d</uid>
								</result>
			<result>
			<name>永福园陵公墓办事处(昌里东路)</name>
			<location>
				<lat>31.183733</lat>
				<lng>121.520288</lng>
			</location>
							<address>昌里东路446</address>
										<telephone>021-50788017</telephone>
										<uid>444a459576b9d2f67369d330</uid>
								</result>
			<result>
			<name>永福陵园代办处</name>
			<location>
				<lat>31.267673</lat>
				<lng>121.545443</lng>
			</location>
							<address>宁国路36</address>
										<telephone>(021)65732952</telephone>
										<uid>58c20fa3c08ba73f0ab93a41</uid>
								</result>
	  </results>
</PlaceSearchResponse>
