<?xml version="1.0" encoding="utf-8" ?> 
<PlaceSearchResponse> 
  <status>0</status>
  <message>ok</message>
  	<total>7</total>
    <results>
			<result>
			<name>渔人码头</name>
			<location>
				<lat>31.097686</lat>
				<lng>121.401727</lng>
			</location>
							<address>闵行区闵行区银都路(都市路)</address>
										<telephone>(021)64580012</telephone>
										<uid>8d96925c115c905cc0f1cfa5</uid>
								</result>
			<result>
			<name>渔人码头</name>
			<location>
				<lat>31.319829</lat>
				<lng>121.466766</lng>
			</location>
							<address>闸北区汾西路330号(近阳曲路)</address>
													<uid>4fc3161a8d9532b03b13fdb1</uid>
								</result>
			<result>
			<name>渔人码头(高平路店)</name>
			<location>
				<lat>31.287679</lat>
				<lng>121.435499</lng>
			</location>
							<address>高平路209号</address>
										<telephone>15821881506</telephone>
										<uid>9eaecde9cecdf992f60e7726</uid>
								</result>
			<result>
			<name>渔人码头平价小海鲜</name>
			<location>
				<lat>31.150277</lat>
				<lng>121.333194</lng>
			</location>
							<address>九亭镇沪松公路1138号</address>
										<telephone>(021)67637799</telephone>
										<uid>f8b7a4baddd16adb28d7ab08</uid>
								</result>
			<result>
			<name>零度渔人码头</name>
			<location>
				<lat>31.226326</lat>
				<lng>121.531941</lng>
			</location>
							<address>浦东新区崂山路705号(近浦电路)</address>
													<uid>669775d030991042fd0eb075</uid>
								</result>
			<result>
			<name>渔人码头海鲜餐厅</name>
			<location>
				<lat>31.215456</lat>
				<lng>121.375597</lng>
			</location>
							<address>长宁区剑河路530号(近百联西郊购物中心)</address>
													<uid>3dc9befd0477f90fbea240d6</uid>
								</result>
			<result>
			<name>美国渔夫码头餐厅</name>
			<location>
				<lat>31.237211</lat>
				<lng>121.475203</lng>
			</location>
							<address>上海黄浦区南京西路388号仙乐斯广场3楼近新昌路</address>
										<telephone>(021)63345798</telephone>
										<uid>2838fd71f50609376f3e1b9e</uid>
								</result>
	  </results>
</PlaceSearchResponse>
