<?xml version="1.0" encoding="utf-8" ?> 
<PlaceSearchResponse> 
  <status>0</status>
  <message>ok</message>
  	<total>252</total>
    <results>
			<result>
			<name>浦东游泳馆(浦东南路馆)</name>
			<location>
				<lat>31.194376</lat>
				<lng>121.511549</lng>
			</location>
							<address>浦东新区浦东南路3669号4楼(东方路口)</address>
										<telephone>(021)58705330</telephone>
										<uid>91c13f932f4e33e321f01760</uid>
								</result>
			<result>
			<name>上海东方体育中心游泳馆</name>
			<location>
				<lat>31.16073</lat>
				<lng>121.482485</lng>
			</location>
							<address>浦东新区耀体路701号</address>
										<telephone>(021)20238305</telephone>
										<uid>637df60a4202186b40afe6c9</uid>
								</result>
			<result>
			<name>上海东方体育中心</name>
			<location>
				<lat>31.160831</lat>
				<lng>121.487226</lng>
			</location>
							<address>浦东新区泳耀路701号</address>
										<telephone>(021)20238305</telephone>
										<uid>480b24d04bd017e89cec2b20</uid>
								</result>
			<result>
			<name>浦东游泳馆(源深馆)</name>
			<location>
				<lat>31.238909</lat>
				<lng>121.545147</lng>
			</location>
							<address>浦东新区张杨路1458号源深体育中心内(近源深路)</address>
										<telephone>(021)58525881,(021)58857797</telephone>
										<uid>fd13a3f21c74ece3b1077d62</uid>
								</result>
			<result>
			<name>三林游泳馆</name>
			<location>
				<lat>31.186815</lat>
				<lng>121.512453</lng>
			</location>
							<address>云莲路201号</address>
										<telephone>(021)58705330</telephone>
										<uid>b48d5184517f67a931870a71</uid>
								</result>
			<result>
			<name>药谷体育中心游泳馆</name>
			<location>
				<lat>31.202538</lat>
				<lng>121.610752</lng>
			</location>
							<address>浦东新区张江高科技园区哈雷路899号（蔡伦路哈雷路）</address>
										<telephone>(021)58951596</telephone>
										<uid>dfc496b603311cb68936ee1d</uid>
								</result>
			<result>
			<name>张江泳池馆</name>
			<location>
				<lat>31.212808</lat>
				<lng>121.624591</lng>
			</location>
							<address>张江镇田园路88号</address>
													<uid>e78ff4a3e5ffc51a744ff145</uid>
								</result>
			<result>
			<name>张江中学游泳馆</name>
			<location>
				<lat>31.215286</lat>
				<lng>121.622386</lng>
			</location>
							<address>浦东新区张江镇田园路88号</address>
													<uid>c5ddcc08563a13dfd8131862</uid>
								</result>
			<result>
			<name>金桥文体中心游泳馆</name>
			<location>
				<lat>31.2739</lat>
				<lng>121.616438</lng>
			</location>
							<address>浦东新区金高路1777号（近杨高北路）</address>
										<telephone>13127988233</telephone>
										<uid>442076460bed3372dfee8bf0</uid>
								</result>
			<result>
			<name>中芯国际生活园区体育中心游泳馆</name>
			<location>
				<lat>31.224628</lat>
				<lng>121.624462</lng>
			</location>
							<address>浦东新区张江青桐路19弄1号(上海中芯国际学校)</address>
										<telephone>(021)58955500</telephone>
										<uid>ad856a1b705756f36849f3dd</uid>
								</result>
	  </results>
</PlaceSearchResponse>
