<?xml version="1.0" encoding="utf-8" ?> 
<PlaceSearchResponse> 
  <status>0</status>
  <message>ok</message>
  	<total>13</total>
    <results>
			<result>
			<name>中国福利会少年宫上海小伙伴剧场售票处</name>
			<location>
				<lat>31.228202</lat>
				<lng>121.450559</lng>
			</location>
							<address>南京西路1795</address>
													<uid>a7805952b10d4331d81318ec</uid>
								</result>
			<result>
			<name>中国福利会少年宫(正门)</name>
			<location>
				<lat>31.227214</lat>
				<lng>121.450602</lng>
			</location>
							<address>上海市静安区延安西路64号</address>
													<uid>5151958a4e7886d2b54f5453</uid>
								</result>
			<result>
			<name>中国福利会少年宫(东二门)</name>
			<location>
				<lat>31.227916</lat>
				<lng>121.450023</lng>
			</location>
							<address>上海市静安区南京西路1799号</address>
													<uid>df9e7ba589ea76498c1a8918</uid>
								</result>
			<result>
			<name>中国福利会少年宫</name>
			<location>
				<lat>31.227214</lat>
				<lng>121.450557</lng>
			</location>
							<address>静安区延安西路64号(贵都酒店对面)</address>
										<telephone>(021)62481850</telephone>
										<uid>31ecb9c57497e736b4265551</uid>
								</result>
			<result>
			<name>中国福利会少年宫(北二门店)</name>
			<location>
				<lat>31.228117</lat>
				<lng>121.450124</lng>
			</location>
							<address>静安区南京西路1799号</address>
													<uid>38606d391032ea73a6da39d6</uid>
								</result>
			<result>
			<name>中国福利会少年宫(南一门)</name>
			<location>
				<lat>31.227237</lat>
				<lng>121.450655</lng>
			</location>
							<address>延安西路64</address>
													<uid>8029e0580fb502913b221cd1</uid>
								</result>
			<result>
			<name>中国福利会少年宫浦江青少年活动中心</name>
			<location>
				<lat>31.091084</lat>
				<lng>121.502637</lng>
			</location>
							<address>立跃路3889号</address>
										<telephone>(021)64298105</telephone>
										<uid>18afc022492170b97ab55cbd</uid>
								</result>
			<result>
			<name>中国福利会少年宫(北一门)</name>
			<location>
				<lat>31.228264</lat>
				<lng>121.450617</lng>
			</location>
							<address>南京西路1795号附近</address>
													<uid>5b85c6118982f7a56f3e1bab</uid>
								</result>
			<result>
			<name>中国福利会少年宫(西门)</name>
			<location>
				<lat>31.227206</lat>
				<lng>121.449564</lng>
			</location>
							<address>上海市静安区延安西路64号</address>
													<uid>3c8417559c66d7c5601809d6</uid>
								</result>
			<result>
			<name>中国福利会少年宫北门</name>
			<location>
				<lat>31.228117</lat>
				<lng>121.450126</lng>
			</location>
							<address>南京西路1799</address>
													<uid>bff8fa7ddac936a1c9213d83</uid>
								</result>
	  </results>
</PlaceSearchResponse>
