<?xml version="1.0" encoding="utf-8" ?> 
<PlaceSearchResponse> 
  <status>0</status>
  <message>ok</message>
  	<total>81</total>
    <results>
			<result>
			<name>上海世博会纪念展</name>
			<location>
				<lat>31.199997</lat>
				<lng>121.490185</lng>
			</location>
							<address>乘18、318、1212路等公交车在龙华东路蒙自路站下车后步行约250米可达</address>
										<telephone>(021)63326262</telephone>
										<uid>9fbcd6d64f316bbcd12dd67f</uid>
								</result>
			<result>
			<name>上海世博会浦东主题馆</name>
			<location>
				<lat>31.188112</lat>
				<lng>121.496453</lng>
			</location>
							<address>浦东新区国展路1099号(近世博轴西侧)</address>
										<telephone>(021)20893600</telephone>
										<uid>78bd50f744412f2630870a94</uid>
								</result>
			<result>
			<name>世博会博物馆</name>
			<location>
				<lat>31.199465</lat>
				<lng>121.487695</lng>
			</location>
							<address>浦西世博园D片区蒙自路(局门路口)</address>
													<uid>5e6f989e9ad80b3eb726554f</uid>
								</result>
			<result>
			<name>上海世博会浦西管理中心</name>
			<location>
				<lat>31.19843</lat>
				<lng>121.487764</lng>
			</location>
							<address>局门路801临</address>
													<uid>363dcbac7a7dfb9b3913fdae</uid>
								</result>
			<result>
			<name>上海市世博会协调局</name>
			<location>
				<lat>31.196746</lat>
				<lng>121.512115</lng>
			</location>
							<address>浦东南路3588号世博大厦2-3、6-7层</address>
										<telephone>(021)22062010</telephone>
										<uid>53ef1f6f2861b7586f3e1b60</uid>
								</result>
			<result>
			<name>上海世博会博物馆</name>
			<location>
				<lat>31.199133</lat>
				<lng>121.489161</lng>
			</location>
							<address>蒙自路818号</address>
													<uid>9697436bdb02411c10293518</uid>
								</result>
			<result>
			<name>2010年上海世博会特许商品专柜</name>
			<location>
				<lat>31.628729</lat>
				<lng>121.402432</lng>
			</location>
							<address>崇明人民路118号 附近</address>
													<uid>3c3d3475af83bb822cb17ef6</uid>
								</result>
			<result>
			<name>上海世博会特许商品销售中心</name>
			<location>
				<lat>31.059412</lat>
				<lng>121.723374</lng>
			</location>
							<address>上海野生动物园内</address>
													<uid>8c87f3d61c62dc231329357f</uid>
								</result>
			<result>
			<name>上海世博会场址短租房</name>
			<location>
				<lat>31.203349</lat>
				<lng>121.451261</lng>
			</location>
							<address>上海市徐汇区宛平南路</address>
													<uid>81517b381f773a8ec03644ba</uid>
								</result>
			<result>
			<name>上海世博会特许商品零售店（旗舰店）</name>
			<location>
				<lat>31.234656</lat>
				<lng>121.489296</lng>
			</location>
							<address>黄浦区南京东路558号上海旅游品商厦1楼（近福建中路）</address>
										<telephone>(021)63519661,(021)63221768</telephone>
										<uid>72ee157762b0e7fc87330479</uid>
								</result>
	  </results>
</PlaceSearchResponse>
