<?xml version="1.0" encoding="utf-8" ?> 
<PlaceSearchResponse> 
  <status>0</status>
  <message>ok</message>
  	<total>5</total>
    <results>
			<result>
			<name>青春广场</name>
			<location>
				<lat>30.93021</lat>
				<lng>121.586706</lng>
			</location>
							<address>上海市奉贤区</address>
													<uid>fc767524db35cbf94e776e64</uid>
								</result>
			<result>
			<name>青春之歌</name>
			<location>
				<lat>30.909112</lat>
				<lng>121.466401</lng>
			</location>
							<address>上海市奉贤区</address>
													<uid>0ef32d5c1e3f9a63fa221304</uid>
								</result>
			<result>
			<name>青春盛宴自助烤肉</name>
			<location>
				<lat>31.049296</lat>
				<lng>121.2048</lng>
			</location>
							<address>上海市松江区文汇路746号（启源美食广场2楼）</address>
										<telephone>13161356667</telephone>
										<uid>a40e9e7a88ff0aaaae045765</uid>
								</result>
			<result>
			<name>青春盛宴自助烤肉</name>
			<location>
				<lat>31.055939</lat>
				<lng>121.210961</lng>
			</location>
							<address>文汇路746号（启源美食广场2楼）</address>
										<telephone>(021)67681807</telephone>
										<uid>369067e4a4141155f92d6166</uid>
								</result>
			<result>
			<name>致青春7080饭堂</name>
			<location>
				<lat>31.323099</lat>
				<lng>121.446</lng>
			</location>
							<address>上海市宝山区一二八纪念路1000弄宝山万达广场金街239号</address>
										<telephone>15900552658</telephone>
										<uid>a807d0893bf7ae5701897263</uid>
								</result>
	  </results>
</PlaceSearchResponse>
