<?xml version="1.0" encoding="utf-8" ?> 
<PlaceSearchResponse> 
  <status>0</status>
  <message>ok</message>
  	<total>31</total>
    <results>
			<result>
			<name>上海梅赛德斯奔驰文化中心</name>
			<location>
				<lat>31.194816</lat>
				<lng>121.499665</lng>
			</location>
							<address>世博大道1200号</address>
										<telephone>4007339993</telephone>
										<uid>925c550f91e078ab5b3ac8e3</uid>
								</result>
			<result>
			<name>Fresh Mix(世博奔驰文化中心店)</name>
			<location>
				<lat>31.194221</lat>
				<lng>121.499041</lng>
			</location>
							<address>上海浦东新区世博大道1200号梅赛德斯奔驰文化演艺中心6楼(近世博影城5号厅旁)</address>
										<telephone>(021)62189208</telephone>
										<uid>b7021bf870f8bee3f4e73bdf</uid>
								</result>
			<result>
			<name>上海世博国际影城</name>
			<location>
				<lat>31.1946</lat>
				<lng>121.499755</lng>
			</location>
							<address>上海浦东新区世博大道1200号梅赛德斯奔驰文化中心6层</address>
										<telephone>021-20251186</telephone>
										<uid>e3e2cd9d02ca39fac6f50de1</uid>
								</result>
			<result>
			<name>富驿商旅酒店(世博梅赛德斯奔驰文化中心店)</name>
			<location>
				<lat>31.206522</lat>
				<lng>121.51385</lng>
			</location>
							<address>浦东新区南码头路101号（世博大道口）</address>
										<telephone>(021)61009100</telephone>
										<uid>750ec165ea99a6324c3a591f</uid>
								</result>
			<result>
			<name>上海世博婚礼中心</name>
			<location>
				<lat>31.192391</lat>
				<lng>121.495353</lng>
			</location>
							<address>世博大道1500号(近世博馆路)</address>
										<telephone>(021)20206060</telephone>
										<uid>8d4491486cd60f52a1d230c1</uid>
								</result>
			<result>
			<name>上海月亮船（原世博会沙特馆）</name>
			<location>
				<lat>31.289793</lat>
				<lng>121.463189</lng>
			</location>
							<address>闸北区平型关路1220号海上文化中心1号楼1楼</address>
										<telephone>(021)36396891</telephone>
										<uid>00004b68af0068a9770269ad</uid>
								</result>
			<result>
			<name>上海浦江世博家园酒店公寓</name>
			<location>
				<lat>31.086136</lat>
				<lng>121.506434</lng>
			</location>
							<address>世博大道1200号梅赛德斯-奔驰文化中心602室</address>
										<telephone>4007339993</telephone>
										<uid>b388f9fd8dc6b058b35c6a17</uid>
								</result>
			<result>
			<name>上海黄浦江游览（世博—浦江精华游）</name>
			<location>
				<lat>31.193758</lat>
				<lng>121.499802</lng>
			</location>
							<address>上海市黄浦区世博大道1200号奔驰文化中心B入口</address>
													<uid>60977017fb0d05c2c929150c</uid>
								</result>
			<result>
			<name>世博影城</name>
			<location>
				<lat>31.187093</lat>
				<lng>121.494</lng>
			</location>
							<address>上海市浦东新区世博大道1200号梅赛德斯奔驰文化中心6楼(近上南路)</address>
										<telephone>(021)20251186</telephone>
										<uid>c45a26868e52fa1649fd3f45</uid>
								</result>
			<result>
			<name>巨日文化灰姑娘儿童剧</name>
			<location>
				<lat>31.193758</lat>
				<lng>121.499802</lng>
			</location>
							<address>上海市浦东新区世博大道1200号梅赛德斯-奔驰文化中心一层</address>
										<telephone>13564367091</telephone>
										<uid>7849822575832c12afee7a91</uid>
								</result>
	  </results>
</PlaceSearchResponse>
