<?xml version="1.0" encoding="utf-8" ?> 
<PlaceSearchResponse> 
  <status>0</status>
  <message>ok</message>
  	<total>10</total>
    <results>
			<result>
			<name>格林豪泰(上海龙华店)(无效)</name>
			<location>
				<lat>31.185154</lat>
				<lng>121.45839</lng>
			</location>
							<address>上海徐汇区上海市徐汇区龙华路2555号（徐家汇、打浦桥地区，近华容路口）</address>
										<telephone>(021)36174888</telephone>
										<uid>c61bd3057eb50071c27da212</uid>
								</result>
			<result>
			<name>龙华寺快捷酒店</name>
			<location>
				<lat>31.185193</lat>
				<lng>121.458274</lng>
			</location>
							<address>上海市徐汇区龙华路2555号（近宛平南路）</address>
										<telephone>(021)64279997</telephone>
										<uid>629d4e707a275cde71210b55</uid>
								</result>
			<result>
			<name>龙华素斋(龙华寺店)</name>
			<location>
				<lat>31.180335</lat>
				<lng>121.4583</lng>
			</location>
							<address>上海徐汇区龙华路2853号龙华寺内(近龙华西路)</address>
										<telephone>13621887686,(021)64574805</telephone>
										<uid>be1ea5effa388fa615948e81</uid>
								</result>
			<result>
			<name>上海恺悦口腔门诊部</name>
			<location>
				<lat>31.183756</lat>
				<lng>121.459269</lng>
			</location>
							<address>徐汇区龙华路2546号(近龙华寺)</address>
										<telephone>(021)34160918</telephone>
										<uid>38e48037fd96cb50373a7150</uid>
								</result>
			<result>
			<name>苏皖汇</name>
			<location>
				<lat>31.180227</lat>
				<lng>121.455087</lng>
			</location>
							<address>徐汇区天钥桥路1887号(靠近龙华寺上海体育馆)</address>
										<telephone>(021)54129707</telephone>
										<uid>b9f5da4d7427bcad95ca0730</uid>
								</result>
			<result>
			<name>湘风轩食府</name>
			<location>
				<lat>31.185185</lat>
				<lng>121.458276</lng>
			</location>
							<address>上海徐汇区龙华路2555号(近龙华寺)</address>
										<telephone>(021)54893933</telephone>
										<uid>c8e8f63301908775ab0dd8c2</uid>
								</result>
			<result>
			<name>花园餐厅</name>
			<location>
				<lat>31.1792</lat>
				<lng>121.456591</lng>
			</location>
							<address>上海徐汇区龙华西路109号(龙华寺对面)</address>
										<telephone>(021)64560077</telephone>
										<uid>99c57b37263c5fb4b4265537</uid>
								</result>
			<result>
			<name>龙逸茶坊</name>
			<location>
				<lat>31.179285</lat>
				<lng>121.456429</lng>
			</location>
							<address>上海徐汇区龙华西路127号(近龙华寺/龙华烈士陵园)</address>
										<telephone>(021)59130777</telephone>
										<uid>cdef4edf3423d45728d7ab1c</uid>
								</result>
			<result>
			<name>羽佳红烧牛肉面</name>
			<location>
				<lat>31.18917</lat>
				<lng>121.458697</lng>
			</location>
							<address>上海徐汇区宛平南路968弄32号(近龙华寺)</address>
													<uid>3ec9d6a32c8abf8b43afe657</uid>
								</result>
			<result>
			<name>娜迪瑜伽馆</name>
			<location>
				<lat>31.184768</lat>
				<lng>121.459641</lng>
			</location>
							<address>徐汇区上海市龙华路2518弄盛大花园会所302(龙华寺)</address>
										<telephone>13761993227</telephone>
										<uid>49bab10195d2cac3e115f906</uid>
								</result>
	  </results>
</PlaceSearchResponse>
