<?xml version="1.0" encoding="utf-8" ?> 
<PlaceSearchResponse> 
  <status>0</status>
  <message>ok</message>
  	<total>11</total>
    <results>
			<result>
			<name>绿瓦羽毛球中心</name>
			<location>
				<lat>31.319945</lat>
				<lng>121.534751</lng>
			</location>
							<address>杨浦区长海路345号上海体育学院内(近嫩江路)</address>
													<uid>f696f3c26da5cef21b11d563</uid>
								</result>
			<result>
			<name>静安体院馆网球中心</name>
			<location>
				<lat>31.23393</lat>
				<lng>121.458091</lng>
			</location>
							<address>静安区南阳路125号</address>
													<uid>4f10a60acb4a1b3543afe64d</uid>
								</result>
			<result>
			<name>上海外贸学院体育中心</name>
			<location>
				<lat>31.212661</lat>
				<lng>121.406845</lng>
			</location>
							<address>长宁区古北路620号</address>
										<telephone>(021)52067399</telephone>
										<uid>ebfb55067a42729c15a190bb</uid>
								</result>
			<result>
			<name>陈家沟天才太极拳学院(源深体育中心店)</name>
			<location>
				<lat>31.236747</lat>
				<lng>121.541671</lng>
			</location>
							<address>浦东新区张杨路1458号源深体育中心3号口（保龄球馆门口）</address>
													<uid>101b4dc7dcb0bb4c03ec013e</uid>
								</result>
			<result>
			<name>宝山体育中心上海行知学院运动场</name>
			<location>
				<lat>31.398145</lat>
				<lng>121.497702</lng>
			</location>
							<address>上海市宝山区</address>
													<uid>936270415867a2855cd4feba</uid>
								</result>
			<result>
			<name>上海市职业教育舞蹈表演开放实训中心</name>
			<location>
				<lat>31.174627</lat>
				<lng>121.427191</lng>
			</location>
							<address>桂林路201号上海应用技术学院北区内</address>
										<telephone>(021)64960705</telephone>
										<uid>64a5c04aa0d24a3786330478</uid>
								</result>
			<result>
			<name>应用技术学院足球场</name>
			<location>
				<lat>31.173213</lat>
				<lng>121.428075</lng>
			</location>
							<address>徐汇区漕宝路120号(光大会议中心)</address>
													<uid>25760e12b96c62409c09f7eb</uid>
								</result>
			<result>
			<name>上海交通大学-上海雷博司电气气体绝缘研究中心</name>
			<location>
				<lat>31.205017</lat>
				<lng>121.438827</lng>
			</location>
							<address>华山路1954号上海交通大学徐汇校区</address>
										<telephone>(021)34206500</telephone>
										<uid>101bc61b0dc3daa2c42ba1de</uid>
								</result>
			<result>
			<name>上海大学生体育中心游泳馆</name>
			<location>
				<lat>31.054671</lat>
				<lng>121.218822</lng>
			</location>
							<address>松江区文翔路2000号（近上海外贸学院）</address>
										<telephone>(021)67827272-8102</telephone>
										<uid>08722d87dd23529d43ab9aa4</uid>
								</result>
			<result>
			<name>星河湾酒店网球场</name>
			<location>
				<lat>31.198314</lat>
				<lng>121.544613</lng>
			</location>
							<address>浦东新区锦绣路2588号星河湾酒店内(浦东干部学院对面、浦东图书馆对面、地铁锦绣路站、新国际博览中心附近)</address>
										<telephone>(021)38929666-788</telephone>
										<uid>3f3ed5142520de948c55ec2e</uid>
								</result>
	  </results>
</PlaceSearchResponse>
