<?xml version="1.0" encoding="utf-8" ?> 
<PlaceSearchResponse> 
  <status>0</status>
  <message>ok</message>
  	<total>314</total>
    <results>
			<result>
			<name>上海游泳馆</name>
			<location>
				<lat>31.185147</lat>
				<lng>121.447311</lng>
			</location>
							<address>中山南二路1300号轨道交通11号线</address>
													<uid>cb4fd1465c10c0589d9d6863</uid>
								</result>
			<result>
			<name>上海游泳馆</name>
			<location>
				<lat>31.185365</lat>
				<lng>121.448026</lng>
			</location>
							<address>地铁11号线</address>
													<uid>bf0672862f66f6a826d2bbc1</uid>
								</result>
			<result>
			<name>上海游泳馆</name>
			<location>
				<lat>31.185055</lat>
				<lng>121.448468</lng>
			</location>
							<address>49路;87路;104路;111路;144路;770路;808路;824路;956路;957路;958路;隧道二线;万周专线</address>
													<uid>39cb8b2e1ced664bb54f5462</uid>
								</result>
			<result>
			<name>上海游泳馆</name>
			<location>
				<lat>31.185365</lat>
				<lng>121.448026</lng>
			</location>
							<address>地铁11号线</address>
													<uid>fe335534252d1af9df1e5298</uid>
								</result>
			<result>
			<name>上海游泳馆</name>
			<location>
				<lat>31.187858</lat>
				<lng>121.444625</lng>
			</location>
							<address>徐汇区漕溪北路1111号上海体育馆内（近中山南二路）</address>
										<telephone>(021)64814303</telephone>
										<uid>1b03dbd796d2e62474026946</uid>
								</result>
			<result>
			<name>上海浦东游泳馆(南门)</name>
			<location>
				<lat>31.193318</lat>
				<lng>121.51181</lng>
			</location>
							<address>沂林路77弄1号如果没人请送到77弄37号</address>
													<uid>a6dde5d28a5057abdc1e5257</uid>
								</result>
			<result>
			<name>上海游泳馆娃娃池</name>
			<location>
				<lat>31.185154</lat>
				<lng>121.447121</lng>
			</location>
							<address>徐汇区中山南二路1300号（近天钥桥路）</address>
										<telephone>(021)64382372</telephone>
										<uid>1a24a4777707ac4b246e981b</uid>
								</result>
			<result>
			<name>上海东方体育中心游泳馆</name>
			<location>
				<lat>31.16073</lat>
				<lng>121.482485</lng>
			</location>
							<address>浦东新区耀体路701号</address>
										<telephone>(021)20238305</telephone>
										<uid>637df60a4202186b40afe6c9</uid>
								</result>
			<result>
			<name>上海普强游泳馆</name>
			<location>
				<lat>31.251621</lat>
				<lng>121.440862</lng>
			</location>
							<address>西康路1518弄14号（近宜昌路）</address>
										<telephone>4006099870</telephone>
										<uid>4878b452274f3663c3364459</uid>
								</result>
			<result>
			<name>上海浦东游泳馆(西门)</name>
			<location>
				<lat>31.194383</lat>
				<lng>121.511495</lng>
			</location>
							<address>浦东南路3669</address>
													<uid>518d09ae62e2c5bcc72ba18b</uid>
								</result>
	  </results>
</PlaceSearchResponse>
