<?xml version="1.0" encoding="utf-8" ?> 
<PlaceSearchResponse> 
  <status>0</status>
  <message>ok</message>
  	<total>334</total>
    <results>
			<result>
			<name>上海世纪公园</name>
			<location>
				<lat>31.221764</lat>
				<lng>121.558497</lng>
			</location>
							<address>上海市浦东新区锦绣路1001号(世纪公园)</address>
										<telephone>(021)83760588,021-58337122</telephone>
										<uid>9db9d6f6cbf3ef0433169b45</uid>
								</result>
			<result>
			<name>世纪公园-4号门</name>
			<location>
				<lat>31.222636</lat>
				<lng>121.567271</lng>
			</location>
							<address>上海市浦东新区芳甸路858号</address>
										<telephone>(021)83760588</telephone>
										<uid>ab337992bd75e0fb28201a40</uid>
								</result>
			<result>
			<name>上海世纪公园球场</name>
			<location>
				<lat>31.222651</lat>
				<lng>121.567204</lng>
			</location>
							<address>芳甸路858号</address>
										<telephone>(021)50339739</telephone>
										<uid>ce9b31f1efe1dc6b130daa02</uid>
								</result>
			<result>
			<name>世纪公园一号门售票处</name>
			<location>
				<lat>31.223107</lat>
				<lng>121.553464</lng>
			</location>
							<address>上海市浦东新区锦绣路1001号世纪公园内</address>
													<uid>3bda8ce78489793cb1077d9c</uid>
								</result>
			<result>
			<name>格林豪泰酒店(上海世纪公园店)</name>
			<location>
				<lat>31.210298</lat>
				<lng>121.550242</lng>
			</location>
							<address>上海市浦东新区浦建路1352号(浦建路东建路)</address>
										<telephone>(021)50591122</telephone>
										<uid>923ffd00663506aed92f284d</uid>
								</result>
			<result>
			<name>上海世纪公园管理有限公司</name>
			<location>
				<lat>31.22743</lat>
				<lng>121.566031</lng>
			</location>
							<address>上海市浦东新区芳甸路666号</address>
										<telephone>(021)38760588</telephone>
										<uid>bff8fa7dd9b535a1c8213d47</uid>
								</result>
			<result>
			<name>世纪公园-5号门</name>
			<location>
				<lat>31.22042</lat>
				<lng>121.567361</lng>
			</location>
							<address>上海市浦东新区花木路1159号</address>
										<telephone>(021)83760588</telephone>
										<uid>5856ef84af90c7c730621250</uid>
								</result>
			<result>
			<name>世纪公园-2号门</name>
			<location>
				<lat>31.225701</lat>
				<lng>121.558154</lng>
			</location>
							<address>上海市浦东新区锦绣路901号</address>
										<telephone>(021)83760588</telephone>
										<uid>66ea590a70ca22ad40e192b1</uid>
								</result>
			<result>
			<name>上海赛嘉世纪公园服务式公寓</name>
			<location>
				<lat>31.220513</lat>
				<lng>121.56971</lng>
			</location>
							<address>上海花木路1883弄1703号</address>
													<uid>1d9967d7f1e296795e17c34e</uid>
								</result>
			<result>
			<name>上海赛嘉世纪公园服务式公寓(Savills Residence Century Park)</name>
			<location>
				<lat>31.22066</lat>
				<lng>121.570419</lng>
			</location>
							<address>上海浦东新区花木路1883弄1703号</address>
										<telephone>(021)51976699</telephone>
										<uid>5ed7320f1b9510544251c00d</uid>
								</result>
	  </results>
</PlaceSearchResponse>
