<?xml version="1.0" encoding="utf-8" ?> 
<PlaceSearchResponse> 
  <status>0</status>
  <message>ok</message>
  	<total>151</total>
    <results>
			<result>
			<name>上海世茂国际广场</name>
			<location>
				<lat>31.240429</lat>
				<lng>121.482377</lng>
			</location>
							<address>上海市南京东路819号</address>
										<telephone>(021)63130528</telephone>
										<uid>25ec69fcca19a964c26c1436</uid>
								</result>
			<result>
			<name>百联世茂国际广场车库</name>
			<location>
				<lat>31.239881</lat>
				<lng>121.482267</lng>
			</location>
							<address>黄浦区九江路768号</address>
													<uid>08fc93df642e53ec9b68b4f3</uid>
								</result>
			<result>
			<name>上海百联世茂</name>
			<location>
				<lat>31.240723</lat>
				<lng>121.48225</lng>
			</location>
							<address>上海黄浦区南京东路819号百联世茂国际广场1楼107室</address>
													<uid>593c7b385db014e3a2046417</uid>
								</result>
			<result>
			<name>哈根达斯（新百联世茂国际店）</name>
			<location>
				<lat>31.240707</lat>
				<lng>121.482202</lng>
			</location>
							<address>上海黄浦区南京东路819号百联世茂国际广场1楼107室(近西藏中路)</address>
										<telephone>021-63224547</telephone>
										<uid>0dc3d82ddcb04d7574e5b691</uid>
								</result>
			<result>
			<name>ONLY(上海世茂皇家艾美酒店西)</name>
			<location>
				<lat>31.24002</lat>
				<lng>121.48234</lng>
			</location>
							<address>南京东路819号百联世茂国际广场4层T416</address>
													<uid>39d5a451be5c84fa8c1a8917</uid>
								</result>
			<result>
			<name>玛丝菲尔(上海世茂皇家艾美酒店西)</name>
			<location>
				<lat>31.240275</lat>
				<lng>121.482273</lng>
			</location>
							<address>南京东路819号百联世茂国际广场2层T210</address>
													<uid>539d5092a3ff08ec077ce85b</uid>
								</result>
			<result>
			<name>雅莹(百联世茂国际广场)</name>
			<location>
				<lat>31.240676</lat>
				<lng>121.482346</lng>
			</location>
							<address>上海市南京东路819号上海百联世茂国际广场2层208号商铺雅莹专卖店</address>
										<telephone>(021)63527780</telephone>
										<uid>083a55fa8cd2ee60246e9823</uid>
								</result>
			<result>
			<name>俏江南（上海百联世茂店）</name>
			<location>
				<lat>31.240445</lat>
				<lng>121.481901</lng>
			</location>
							<address>黄浦区南京东路819号百联世茂国际广场东扩9楼(近西藏中路)</address>
										<telephone>(021)63528856,(021)63528857</telephone>
										<uid>a688d27aa0f2bbfaf5c59cbd</uid>
								</result>
			<result>
			<name>WATER WORKS(上海百联世茂店)</name>
			<location>
				<lat>31.240661</lat>
				<lng>121.482793</lng>
			</location>
							<address>南京东路819号百联世贸3楼T332</address>
										<telephone>4009955819</telephone>
										<uid>e3e3fcdaad045f29a5da3955</uid>
								</result>
			<result>
			<name>报喜鸟（上海百联世茂店）</name>
			<location>
				<lat>31.240591</lat>
				<lng>121.482076</lng>
			</location>
							<address>南京东路829号百联世茂国际广场二期五楼T526</address>
										<telephone>(021)63510912</telephone>
										<uid>dd3368c0b7d4940fb64f54c1</uid>
								</result>
	  </results>
</PlaceSearchResponse>
