<?xml version="1.0" encoding="utf-8" ?> 
<PlaceSearchResponse> 
  <status>0</status>
  <message>ok</message>
  	<total>66</total>
    <results>
			<result>
			<name>和平广场</name>
			<location>
				<lat>31.206947</lat>
				<lng>121.398986</lng>
			</location>
							<address>长宁区水城南路37号</address>
													<uid>f5e3bcae8c09b0d85e17c3cb</uid>
								</result>
			<result>
			<name>上海华美达广场和平大酒店</name>
			<location>
				<lat>31.208121</lat>
				<lng>121.479327</lng>
			</location>
							<address>上海斜土路688号</address>
										<telephone>(021)53028888</telephone>
										<uid>6ee010204c9267f652e5c51f</uid>
								</result>
			<result>
			<name>上海华美达广场和平大酒店</name>
			<location>
				<lat>31.208121</lat>
				<lng>121.479331</lng>
			</location>
							<address>斜土路688号</address>
													<uid>ad763edd25bfc9754251c005</uid>
								</result>
			<result>
			<name>上海华美达广场和平大酒店-洗手间</name>
			<location>
				<lat>31.208121</lat>
				<lng>121.479331</lng>
			</location>
							<address>上海斜土路688号</address>
													<uid>ec4e9d75c6cf2b9b931fc9b3</uid>
								</result>
			<result>
			<name>和平广场-停车场</name>
			<location>
				<lat>31.206592</lat>
				<lng>121.398684</lng>
			</location>
							<address>长宁区水城路18号</address>
													<uid>9599159817c1b54b25e0a051</uid>
								</result>
			<result>
			<name>洛城广场停车场</name>
			<location>
				<lat>31.206468</lat>
				<lng>121.398822</lng>
			</location>
							<address>长宁区虹桥路1665号</address>
													<uid>4616f7ab6898917d3e9a5e41</uid>
								</result>
			<result>
			<name>宝岛眼镜(大连和平广场店)</name>
			<location>
				<lat>31.207163</lat>
				<lng>121.399141</lng>
			</location>
							<address>凯德和平广场1楼-98号</address>
										<telephone>(021)84348689</telephone>
										<uid>a8ad6a197c9cba091d1d1119</uid>
								</result>
			<result>
			<name>好想你品牌专营店(和平广场店)</name>
			<location>
				<lat>31.206932</lat>
				<lng>121.398898</lng>
			</location>
							<address>和平广场店</address>
													<uid>4f099a55455ca052343a71f9</uid>
								</result>
			<result>
			<name>上海交通大学医学院附属国际和平妇幼保健院</name>
			<location>
				<lat>31.201982</lat>
				<lng>121.445769</lng>
			</location>
							<address>徐汇区衡山路910号(港汇广场对面)</address>
										<telephone>021-64070434</telephone>
										<uid>844a750e1f3f0ea06268585d</uid>
								</result>
			<result>
			<name>Movie Star</name>
			<location>
				<lat>31.206932</lat>
				<lng>121.398907</lng>
			</location>
							<address>长宁区水城路12-20号和平广场内（近虹桥路）</address>
										<telephone>(021)62192228</telephone>
										<uid>7ad9564861de70c38bfc061d</uid>
								</result>
	  </results>
</PlaceSearchResponse>
