<?xml version="1.0" encoding="utf-8" ?> 
<PlaceSearchResponse> 
  <status>0</status>
  <message>ok</message>
  	<total>1845</total>
    <results>
			<result>
			<name>上海体育馆</name>
			<location>
				<lat>31.18785</lat>
				<lng>121.444761</lng>
			</location>
							<address>徐汇区漕溪北路与中山南二路交界</address>
										<telephone>021-64399700</telephone>
										<uid>39d43f82b4150987a8059dde</uid>
								</result>
			<result>
			<name>上海体育馆</name>
			<location>
				<lat>31.188814</lat>
				<lng>121.443402</lng>
			</location>
							<address>地铁1号线;地铁4号线</address>
													<uid>0027210444453215c256acd9</uid>
								</result>
			<result>
			<name>上海体育馆</name>
			<location>
				<lat>31.186399</lat>
				<lng>121.443177</lng>
			</location>
							<address>42路;49路;56路;89路;92路;92路b线;111路;120路;122路;138路;157路;167路;218路;315路;342路;704路;704路b线;718路;720路;721路;754路;808路;824路;923路;926路;957路;985路;大桥六线;上佘定班线</address>
													<uid>09e0b2f09501fab8583ac836</uid>
								</result>
			<result>
			<name>上海市徐汇体育馆</name>
			<location>
				<lat>31.124244</lat>
				<lng>121.449246</lng>
			</location>
							<address>徐汇区华泾路1190号(近位育中学)</address>
										<telephone>(021)64960185</telephone>
										<uid>3dc9befd4d51b217bea240dc</uid>
								</result>
			<result>
			<name>上海体育馆健身中心</name>
			<location>
				<lat>31.258243</lat>
				<lng>121.403561</lng>
			</location>
							<address>普陀区大渡河路1860号</address>
										<telephone>(021)52812733</telephone>
										<uid>07f3c8b56d46097a6240a913</uid>
								</result>
			<result>
			<name>上海体育馆乒乓球馆</name>
			<location>
				<lat>31.187819</lat>
				<lng>121.442947</lng>
			</location>
							<address>上海市徐汇区漕溪北路1111号（靠近中山南二路）</address>
										<telephone>(021)64385200</telephone>
										<uid>bcaebff8b9ed9a4dc9e33c68</uid>
								</result>
			<result>
			<name>如家快捷酒店(上海体育馆徐家汇地铁站店)</name>
			<location>
				<lat>31.192762</lat>
				<lng>121.44191</lng>
			</location>
							<address>上海市徐汇区蒲汇塘路51号（近漕溪北路口）</address>
										<telephone>(021)54257900</telephone>
										<uid>680fb70366f47d858bb98819</uid>
								</result>
			<result>
			<name>上海体育馆(下客站)</name>
			<location>
				<lat>31.185645</lat>
				<lng>121.443733</lng>
			</location>
							<address>138路</address>
													<uid>5a21b520eac4b533efe4a57a</uid>
								</result>
			<result>
			<name>星巴克(上海体育馆店)</name>
			<location>
				<lat>31.188313</lat>
				<lng>121.444329</lng>
			</location>
							<address>上海市徐汇区漕溪路1111号上海体育馆1楼1号扶梯</address>
										<telephone>021-64680229</telephone>
										<uid>cb57d0f9a86dda69246e98de</uid>
								</result>
			<result>
			<name>源深体育馆</name>
			<location>
				<lat>31.237342</lat>
				<lng>121.542819</lng>
			</location>
							<address>浦东新区羽山路9号(桃林路羽山路)</address>
										<telephone>(021)58211053</telephone>
										<uid>50f7d146623885dd72210bd8</uid>
								</result>
	  </results>
</PlaceSearchResponse>
