<?xml version="1.0" encoding="utf-8" ?> 
<PlaceSearchResponse> 
  <status>0</status>
  <message>ok</message>
  	<total>8</total>
    <results>
			<result>
			<name>番茄农庄</name>
			<location>
				<lat>30.949553</lat>
				<lng>121.123959</lng>
			</location>
							<address>上海市松江区叶新支路1600号</address>
										<telephone>(021)57875114</telephone>
										<uid>1efc346579cd0d0bb5f42f9f</uid>
								</result>
			<result>
			<name>番茄农庄</name>
			<location>
				<lat>30.949561</lat>
				<lng>121.123955</lng>
			</location>
							<address>上海市松江区叶新支路1600号</address>
										<telephone>(021)62596606</telephone>
										<uid>750f879091ef7b1cfbdc8562</uid>
								</result>
			<result>
			<name>天一庄园</name>
			<location>
				<lat>30.947989</lat>
				<lng>121.123246</lng>
			</location>
							<address>松江区松江叶新支路1608号(近番茄农庄)</address>
										<telephone>(021)57875285</telephone>
										<uid>9fbfeef26d711a3bede4a546</uid>
								</result>
			<result>
			<name>蕃茄农庄</name>
			<location>
				<lat>31.235219</lat>
				<lng>121.437491</lng>
			</location>
							<address>上海静安区康定路1437号鑫康苑3楼</address>
													<uid>f35c628c35bb3795b04c4940</uid>
								</result>
			<result>
			<name>五库农家乐接待中心</name>
			<location>
				<lat>30.949576</lat>
				<lng>121.12403</lng>
			</location>
							<address>叶新支路1600番茄农庄附近</address>
													<uid>64f55e9e48502bfcfd0eb048</uid>
								</result>
			<result>
			<name>夏家花园</name>
			<location>
				<lat>30.948779</lat>
				<lng>121.128755</lng>
			</location>
							<address>五厍镇叶新支路1588号（番茄农庄旅游区内）</address>
										<telephone>(021)57874880,18016095509</telephone>
										<uid>f16b757bc89f53569cf77911</uid>
								</result>
			<result>
			<name>上海浅水湾度假庄园</name>
			<location>
				<lat>30.949561</lat>
				<lng>121.123955</lng>
			</location>
							<address>上海上海市松江区叶新支路1272号番茄农庄内2号门</address>
													<uid>d32b1c0f8f73023f3ce231ce</uid>
								</result>
			<result>
			<name>新天地乡村马术俱乐部</name>
			<location>
				<lat>30.949329</lat>
				<lng>121.124272</lng>
			</location>
							<address>松江区叶新支路1600号（番茄农庄1号门）</address>
										<telephone>4001888978</telephone>
										<uid>8d96925c5c0e5538c0f1cf9f</uid>
								</result>
	  </results>
</PlaceSearchResponse>
