<?xml version="1.0" encoding="utf-8" ?> 
<PlaceSearchResponse> 
  <status>0</status>
  <message>ok</message>
  	<total>15</total>
    <results>
			<result>
			<name>真如寺素斋</name>
			<location>
				<lat>31.254855</lat>
				<lng>121.408491</lng>
			</location>
							<address>普陀区兰溪路399号(近南大街)</address>
										<telephone>(021)62971581</telephone>
										<uid>d1899c22bb3e03742b201a80</uid>
								</result>
			<result>
			<name>真如寺-东门</name>
			<location>
				<lat>31.254947</lat>
				<lng>121.408303</lng>
			</location>
							<address>兰溪路399</address>
													<uid>0cc8980a4616c8838adb735c</uid>
								</result>
			<result>
			<name>真如寺-南门</name>
			<location>
				<lat>31.254731</lat>
				<lng>121.40794</lng>
			</location>
							<address>寺前街15</address>
													<uid>1b89ee32846690d17bf796d2</uid>
								</result>
			<result>
			<name>真如寺停车场-出入口</name>
			<location>
				<lat>31.25524</lat>
				<lng>121.408571</lng>
			</location>
							<address>铜川路966号</address>
													<uid>87200f5dffe58bc2f603b849</uid>
								</result>
			<result>
			<name>快客北苑店</name>
			<location>
				<lat>31.254368</lat>
				<lng>121.408012</lng>
			</location>
							<address>兰溪路399真如寺附近</address>
													<uid>6113ef777cb5a0178e772724</uid>
								</result>
			<result>
			<name>捷通驾校</name>
			<location>
				<lat>31.254461</lat>
				<lng>121.40849</lng>
			</location>
							<address>普陀区兰溪路311号105房(近真如寺)</address>
										<telephone>(021)52620486,(021)52660535</telephone>
										<uid>27cef01a55ca6cfef603b843</uid>
								</result>
			<result>
			<name>温馨婚纱摄影数码馆</name>
			<location>
				<lat>31.253774</lat>
				<lng>121.407663</lng>
			</location>
							<address>普陀区穿心街1号(近真如寺)</address>
										<telephone>(021)62454999</telephone>
										<uid>8fb6fbb52ca7ccdfb64f541b</uid>
								</result>
			<result>
			<name>湘江民谣</name>
			<location>
				<lat>31.254029</lat>
				<lng>121.408828</lng>
			</location>
							<address>普陀区兰溪路300号(真如寺对面)</address>
													<uid>5ce2637d9d122d48af31e5e0</uid>
								</result>
			<result>
			<name>闽鲜鼎边糊</name>
			<location>
				<lat>31.254114</lat>
				<lng>121.407624</lng>
			</location>
							<address>普陀区北石路158号1-3(真如寺)</address>
										<telephone>(021)62187808</telephone>
										<uid>efb069847089177702897271</uid>
								</result>
			<result>
			<name>胜记龙凤村</name>
			<location>
				<lat>31.254114</lat>
				<lng>121.407494</lng>
			</location>
							<address>上海普陀区北石路162号(真如寺南侧)</address>
										<telephone>(021)62647293</telephone>
										<uid>67e67f92090b62e78c1a89f6</uid>
								</result>
	  </results>
</PlaceSearchResponse>
