<?xml version="1.0" encoding="utf-8" ?> 
<PlaceSearchResponse> 
  <status>0</status>
  <message>ok</message>
  	<total>7</total>
    <results>
			<result>
			<name>下沙老街</name>
			<location>
				<lat>31.053542</lat>
				<lng>121.599826</lng>
			</location>
							<address>上海市浦东新区</address>
													<uid>a96452ca644dd1828bb988a3</uid>
								</result>
			<result>
			<name>下沙老街烧卖</name>
			<location>
				<lat>31.057022</lat>
				<lng>121.59636</lng>
			</location>
							<address>浦东新区下沙镇沪南公路5263号下沙德持烧卖店对面</address>
										<telephone>(021)58141058</telephone>
										<uid>5e53af1ad4feba464151c067</uid>
								</result>
			<result>
			<name>下沙方家烧卖(下沙老街总店)</name>
			<location>
				<lat>31.057038</lat>
				<lng>121.595663</lng>
			</location>
							<address>上海浦东新区下沙镇下沙老街5214号</address>
										<telephone>(021)58141058,13916185988</telephone>
										<uid>d3234a3ef3bad829eedfca0e</uid>
								</result>
			<result>
			<name>下沙老街灌汤烧卖</name>
			<location>
				<lat>31.279756</lat>
				<lng>121.520287</lng>
			</location>
							<address>控江路1736</address>
										<telephone>13002112997</telephone>
										<uid>be09fa7b8e663462250bd02c</uid>
								</result>
			<result>
			<name>下沙老街灌汤烧卖</name>
			<location>
				<lat>31.279771</lat>
				<lng>121.520237</lng>
			</location>
							<address>杨浦区控江路1736号环球(近鞍山路)</address>
													<uid>6a643aed80fa80841811d5e1</uid>
								</result>
			<result>
			<name>下沙老街灌汤烧卖(沈社公路店)</name>
			<location>
				<lat>31.081141</lat>
				<lng>121.555719</lng>
			</location>
							<address>闵行区沈杜公路召稼楼古镇兴东街21号(近联胜路)</address>
										<telephone>4006087007-3</telephone>
										<uid>9636b1dbda4fb371eaf8536f</uid>
								</result>
			<result>
			<name>下沙窗帘</name>
			<location>
				<lat>31.056357</lat>
				<lng>121.599423</lng>
			</location>
							<address>南汇下沙老街161号</address>
										<telephone>(021)58141635</telephone>
										<uid>78a1f418917d4e3657bfff6d</uid>
								</result>
	  </results>
</PlaceSearchResponse>
