<?xml version="1.0" encoding="utf-8" ?> 
<PlaceSearchResponse> 
  <status>0</status>
  <message>ok</message>
  	<total>8</total>
    <results>
			<result>
			<name>不夜城公园</name>
			<location>
				<lat>31.250232</lat>
				<lng>121.467622</lng>
			</location>
							<address>华盛路215号附近</address>
										<telephone>(021)63818861</telephone>
										<uid>c5ddcc08f697b3c7d91318a8</uid>
								</result>
			<result>
			<name>不夜城国际旅行社(陆家嘴分部)</name>
			<location>
				<lat>31.239812</lat>
				<lng>121.510221</lng>
			</location>
							<address>浦东新区银城中路488号太平金融大厦203B室（近花园石桥路）</address>
										<telephone>(021)58763433</telephone>
										<uid>8920161de8585f078bdb7394</uid>
								</result>
			<result>
			<name>手机公园(不夜城店)</name>
			<location>
				<lat>31.251891</lat>
				<lng>121.464022</lng>
			</location>
							<address>天目西路188号不夜城商厦3楼45室</address>
										<telephone>(021)63170996</telephone>
										<uid>2f5ff6685bfe7ab0077ce8ae</uid>
								</result>
			<result>
			<name>不夜城国旅黄浦营业部</name>
			<location>
				<lat>31.237998</lat>
				<lng>121.481924</lng>
			</location>
							<address>上海市黄浦区人民公园一号门南50米</address>
										<telephone>(021)63277901</telephone>
										<uid>d97ce97dc46965b17369d320</uid>
								</result>
			<result>
			<name>骨头汤咸肉菜饭</name>
			<location>
				<lat>31.25149</lat>
				<lng>121.467456</lng>
			</location>
							<address>闸北区天目中路764号（近不夜城公园）</address>
													<uid>0675fa078dd007a68605bfa8</uid>
								</result>
			<result>
			<name>咸肉菜饭骨头汤</name>
			<location>
				<lat>31.251497</lat>
				<lng>121.467501</lng>
			</location>
							<address>闸北区天目中路764号(近不夜城公园)</address>
										<telephone>13916214878</telephone>
										<uid>c9d4388283aa5b9549fc8d32</uid>
								</result>
			<result>
			<name>东方网点文化花园棋牌室</name>
			<location>
				<lat>31.251343</lat>
				<lng>121.457866</lng>
			</location>
							<address>天目西路500号不夜城金融大厦3层</address>
													<uid>4f89c098157e064da4c756bb</uid>
								</result>
			<result>
			<name>东方网点文化花园店</name>
			<location>
				<lat>31.251343</lat>
				<lng>121.457866</lng>
			</location>
							<address>天目西路500号不夜城金融大厦3层</address>
										<telephone>13917675624</telephone>
										<uid>5679e5732ce8cdf13be4a6bf</uid>
								</result>
	  </results>
</PlaceSearchResponse>
