<?xml version="1.0" encoding="utf-8" ?> 
<PlaceSearchResponse> 
  <status>0</status>
  <message>ok</message>
  	<total>659</total>
    <results>
			<result>
			<name>世博广场</name>
			<location>
				<lat>23.03703</lat>
				<lng>113.783857</lng>
			</location>
							<address>东城路283号</address>
										<telephone>(0769)22032888</telephone>
										<uid>610852117c3e3edcc41b75b4</uid>
								</result>
			<result>
			<name>世博广场K区</name>
			<location>
				<lat>23.038485</lat>
				<lng>113.786207</lng>
			</location>
							<address>世博大道世博广场</address>
													<uid>850815e1cb9c8ee643e192de</uid>
								</result>
			<result>
			<name>世博广场J区</name>
			<location>
				<lat>23.039059</lat>
				<lng>113.785335</lng>
			</location>
							<address>东莞市市辖区</address>
													<uid>c3bf73f483c4c5ae03ec0126</uid>
								</result>
			<result>
			<name>世博广场G区</name>
			<location>
				<lat>23.038735</lat>
				<lng>113.7847</lng>
			</location>
							<address>东莞东城区东城大道</address>
													<uid>6deee30875fe541729fc4825</uid>
								</result>
			<result>
			<name>世博广场D区</name>
			<location>
				<lat>23.038194</lat>
				<lng>113.785795</lng>
			</location>
							<address>东莞市市辖区</address>
													<uid>dffd631cf0fd85c138221c31</uid>
								</result>
			<result>
			<name>世博广场商铺</name>
			<location>
				<lat>23.038144</lat>
				<lng>113.785736</lng>
			</location>
							<address>东城世博广场东城大道天源电脑城</address>
													<uid>57dd9a61d919aeed283a9f6e</uid>
								</result>
			<result>
			<name>世博广场C区</name>
			<location>
				<lat>23.039358</lat>
				<lng>113.78361</lng>
			</location>
							<address>东城区东城路283号</address>
													<uid>b388f9fd1bcd223cb35c6a2c</uid>
								</result>
			<result>
			<name>世博广场L区</name>
			<location>
				<lat>23.039724</lat>
				<lng>113.785115</lng>
			</location>
							<address>东城区东城大道</address>
													<uid>e3082848a3607fc2b34c4925</uid>
								</result>
			<result>
			<name>世博广场B区</name>
			<location>
				<lat>23.038402</lat>
				<lng>113.783248</lng>
			</location>
							<address>东莞市市辖区</address>
													<uid>fa835ce29abc5dcbe812e4de</uid>
								</result>
			<result>
			<name>世博广场E区</name>
			<location>
				<lat>23.037604</lat>
				<lng>113.785153</lng>
			</location>
							<address>东莞市市辖区</address>
													<uid>41572e006a7767c9b45f1e31</uid>
								</result>
	  </results>
</PlaceSearchResponse>
