<?xml version="1.0" encoding="utf-8" ?> 
<PlaceSearchResponse> 
  <status>0</status>
  <message>ok</message>
  	<total>88</total>
    <results>
			<result>
			<name>梅赛德斯奔驰文化中心</name>
			<location>
				<lat>31.194816</lat>
				<lng>121.499665</lng>
			</location>
							<address>世博大道1200号</address>
										<telephone>4007339993</telephone>
										<uid>925c550f91e078ab5b3ac8e3</uid>
								</result>
			<result>
			<name>三林世博文化中心</name>
			<location>
				<lat>31.169482</lat>
				<lng>121.501232</lng>
			</location>
							<address>浦东新区杨新路61号(近杨思新村路)</address>
										<telephone>(021)58428586</telephone>
										<uid>49d9593885555e5ac61e5109</uid>
								</result>
			<result>
			<name>Fresh Mix(世博奔驰文化中心店)</name>
			<location>
				<lat>31.194221</lat>
				<lng>121.499041</lng>
			</location>
							<address>上海浦东新区世博大道1200号梅赛德斯奔驰文化演艺中心6楼(近世博影城5号厅旁)</address>
										<telephone>(021)62189208</telephone>
										<uid>b7021bf870f8bee3f4e73bdf</uid>
								</result>
			<result>
			<name>味千拉面(世博文化中心店)</name>
			<location>
				<lat>31.194221</lat>
				<lng>121.499045</lng>
			</location>
							<address>浦东新区世博大道1200号第B1层B101-B103单元</address>
													<uid>55fa2c0b494ee1341ce9996d</uid>
								</result>
			<result>
			<name>上海世博国际影城</name>
			<location>
				<lat>31.1946</lat>
				<lng>121.499755</lng>
			</location>
							<address>上海浦东新区世博大道1200号梅赛德斯奔驰文化中心6层</address>
										<telephone>021-20251186</telephone>
										<uid>e3e2cd9d02ca39fac6f50de1</uid>
								</result>
			<result>
			<name>世博中心</name>
			<location>
				<lat>31.192391</lat>
				<lng>121.495353</lng>
			</location>
							<address>世博大道1500号(近世博馆路)</address>
										<telephone>(021)20206060</telephone>
										<uid>8d4491486cd60f52a1d230c1</uid>
								</result>
			<result>
			<name>宝大祥青少年儿童购物中心（世博店）</name>
			<location>
				<lat>31.192198</lat>
				<lng>121.50337</lng>
			</location>
							<address>浦东新区世博大道1200号世博文化中心B1楼（近上南路）</address>
										<telephone>(021)20251016</telephone>
										<uid>6edaec38fe040cb8b6147ffb</uid>
								</result>
			<result>
			<name>宝大祥青少年儿童购物中心(世博店)</name>
			<location>
				<lat>31.194916</lat>
				<lng>121.499875</lng>
			</location>
							<address>浦东新区世博大道1200号世博文化中心B1楼(近上南路)</address>
										<telephone>(021)20251446</telephone>
										<uid>e3e2cd9d162e45fac7f50dc5</uid>
								</result>
			<result>
			<name>世博中心鲜花店</name>
			<location>
				<lat>31.192198</lat>
				<lng>121.503361</lng>
			</location>
							<address>世博大道1200号世博文化中心1楼</address>
										<telephone>15821943550</telephone>
										<uid>f5fbecbec7e1c7886fc02cf3</uid>
								</result>
			<result>
			<name>富驿商旅酒店(世博梅赛德斯奔驰文化中心店)</name>
			<location>
				<lat>31.206522</lat>
				<lng>121.51385</lng>
			</location>
							<address>浦东新区南码头路101号（世博大道口）</address>
										<telephone>(021)61009100</telephone>
										<uid>750ec165ea99a6324c3a591f</uid>
								</result>
	  </results>
</PlaceSearchResponse>
