<?xml version="1.0" encoding="utf-8" ?> 
<PlaceSearchResponse> 
  <status>0</status>
  <message>ok</message>
  	<total>47</total>
    <results>
			<result>
			<name>ElEFante(东湖路店)</name>
			<location>
				<lat>31.222721</lat>
				<lng>121.461208</lng>
			</location>
							<address>徐汇区东湖路20号（近淮海中路）</address>
										<telephone>(021)54048085</telephone>
										<uid>038e594b1cf5ec1d08ccdd6a</uid>
								</result>
			<result>
			<name>千子晨婚纱摄影(东湖路店)</name>
			<location>
				<lat>31.222412</lat>
				<lng>121.461361</lng>
			</location>
							<address>东湖路20号上海大班商务中心</address>
										<telephone>(021)54037799</telephone>
										<uid>00eadbd6f4312fd02fe67bd6</uid>
								</result>
			<result>
			<name>千代保</name>
			<location>
				<lat>31.222721</lat>
				<lng>121.461208</lng>
			</location>
							<address>东湖路20号2层</address>
										<telephone>(021)54047866</telephone>
										<uid>a90edfac86df23a9b42655d3</uid>
								</result>
			<result>
			<name>LA VINOTECA东湖路店</name>
			<location>
				<lat>31.222721</lat>
				<lng>121.461208</lng>
			</location>
							<address>东湖路20号</address>
										<telephone>(021)54048085</telephone>
										<uid>c5ddcc08741331c5d813182f</uid>
								</result>
			<result>
			<name>千代保天妇罗怀石料理（东湖路店）</name>
			<location>
				<lat>31.222489</lat>
				<lng>121.461208</lng>
			</location>
							<address>上海卢湾区东湖路20号</address>
										<telephone>(021)54047866</telephone>
										<uid>a179d052bce20017d92f282c</uid>
								</result>
			<result>
			<name>组合发型（东湖路店）</name>
			<location>
				<lat>31.222381</lat>
				<lng>121.461459</lng>
			</location>
							<address>徐汇区东湖路20号1-2楼（近淮海中路）</address>
										<telephone>(021)54044689</telephone>
										<uid>97b8fec979edda9cbbdf8f5e</uid>
								</result>
			<result>
			<name>悠庭保健会所（东湖路店）</name>
			<location>
				<lat>31.222489</lat>
				<lng>121.461208</lng>
			</location>
							<address>徐汇区东湖路20号（近淮海中路）</address>
										<telephone>(021)54050008</telephone>
										<uid>2624a7db20075af886420e56</uid>
								</result>
			<result>
			<name>唯网(上海)贸易有限公司(东湖路)</name>
			<location>
				<lat>31.22242</lat>
				<lng>121.461368</lng>
			</location>
							<address>东湖路20号上海大班商务中心4层402-403</address>
													<uid>6776a3c70c2850106c476032</uid>
								</result>
			<result>
			<name>卜内门太古漆油(上海)有限公司(东湖路)</name>
			<location>
				<lat>31.222427</lat>
				<lng>121.461377</lng>
			</location>
							<address>东湖路20号上海大班商务中心5层504-506</address>
													<uid>311f1cbfc5658a85471a3265</uid>
								</result>
			<result>
			<name>Oyama Sushi</name>
			<location>
				<lat>31.222489</lat>
				<lng>121.461208</lng>
			</location>
							<address>徐汇区东湖路20号邸雅居2楼（近淮海中路）</address>
										<telephone>(021)54047705</telephone>
										<uid>fdf62896ede058525a3ac8e4</uid>
								</result>
	  </results>
</PlaceSearchResponse>
