<?xml version="1.0" encoding="utf-8" ?> 
<PlaceSearchResponse> 
  <status>0</status>
  <message>ok</message>
  	<total>286</total>
    <results>
			<result>
			<name>东湖路</name>
			<location>
				<lat>30.921722</lat>
				<lng>121.614384</lng>
			</location>
							<address>上海市奉贤区</address>
													<uid>166edc9186d66f6f9a0050f7</uid>
								</result>
			<result>
			<name>东湖路烧烤</name>
			<location>
				<lat>31.222574</lat>
				<lng>121.460471</lng>
			</location>
							<address>徐汇区东湖路长乐路口（近富民路）</address>
													<uid>0cc35f1dcddb8fc680a00cdd</uid>
								</result>
			<result>
			<name>东湖路/延庆路(路口)</name>
			<location>
				<lat>31.223215</lat>
				<lng>121.458787</lng>
			</location>
							<address>上海市徐汇区</address>
													<uid>e79b2457fd6d8702d22dd6b7</uid>
								</result>
			<result>
			<name>东湖路/新乐路(路口)</name>
			<location>
				<lat>31.223099</lat>
				<lng>121.459127</lng>
			</location>
							<address>上海市徐汇区</address>
													<uid>923ffd00bfd3edb6d92f2816</uid>
								</result>
			<result>
			<name>东湖路/汾阳路(路口)</name>
			<location>
				<lat>31.22181</lat>
				<lng>121.462579</lng>
			</location>
							<address>上海市徐汇区</address>
													<uid>0ed20a15f7bd289657bfff53</uid>
								</result>
			<result>
			<name>富民路/东湖路(路口)</name>
			<location>
				<lat>31.223215</lat>
				<lng>121.458787</lng>
			</location>
							<address>上海市徐汇区</address>
													<uid>48eb0058ca58d8ac2fe67b53</uid>
								</result>
			<result>
			<name>东湖路/长乐路(路口)</name>
			<location>
				<lat>31.223531</lat>
				<lng>121.458113</lng>
			</location>
							<address>上海市静安区</address>
													<uid>57b85e54d1b1f1ad8f55ec9e</uid>
								</result>
			<result>
			<name>淮海中路/东湖路(路口)</name>
			<location>
				<lat>31.22181</lat>
				<lng>121.462579</lng>
			</location>
							<address>上海市徐汇区</address>
													<uid>181653345ce1cf05fa2d619d</uid>
								</result>
			<result>
			<name>白木屋东湖路店</name>
			<location>
				<lat>31.22259</lat>
				<lng>121.460757</lng>
			</location>
							<address>上海市徐汇区东湖路30号</address>
										<telephone>(021)54039928</telephone>
										<uid>435d7aeab866e9345abbbcd3</uid>
								</result>
			<result>
			<name>东湖路56弄小区</name>
			<location>
				<lat>31.222883</lat>
				<lng>121.460826</lng>
			</location>
							<address>淮海中路1200弄1-25号</address>
													<uid>b6137edc536e071309b93ab8</uid>
								</result>
	  </results>
</PlaceSearchResponse>
