<?xml version="1.0" encoding="utf-8" ?> 
<PlaceSearchResponse> 
  <status>0</status>
  <message>ok</message>
  	<total>403</total>
    <results>
			<result>
			<name>中国银行大楼</name>
			<location>
				<lat>31.245207</lat>
				<lng>121.49639</lng>
			</location>
							<address>黄浦区外滩23号，中山东一路，南京东路</address>
													<uid>6e53fd3d8cf0ff64bb17e7c0</uid>
								</result>
			<result>
			<name>中国民生银行大厦</name>
			<location>
				<lat>31.246288</lat>
				<lng>121.514652</lng>
			</location>
							<address>浦东南路100号(银城东路)</address>
													<uid>4eb3b533e87f3c74420245af</uid>
								</result>
			<result>
			<name>中国民生银行大厦</name>
			<location>
				<lat>31.234463</lat>
				<lng>121.477002</lng>
			</location>
							<address>静安区威海路48号(黄陂北路口)</address>
										<telephone>(021)53857700</telephone>
										<uid>29cc40caef81b37c2dfaa747</uid>
								</result>
			<result>
			<name>中国人民银行大厦</name>
			<location>
				<lat>31.24391</lat>
				<lng>121.516292</lng>
			</location>
							<address>陆家嘴东路181</address>
													<uid>bdafc683df7e40128605bfec</uid>
								</result>
			<result>
			<name>中国银行(宝钢大厦支行)</name>
			<location>
				<lat>31.228403</lat>
				<lng>121.537573</lng>
			</location>
							<address>浦东新区浦电路370号宝钢大厦1层</address>
										<telephone>021-68403261</telephone>
										<uid>669775d05c023458fc0eb08a</uid>
								</result>
			<result>
			<name>中国银行(金茂大厦支行)</name>
			<location>
				<lat>31.240754</lat>
				<lng>121.512069</lng>
			</location>
							<address>上海市浦东新区世纪大道88号金茂时尚生活中心4层</address>
										<telephone>(021)50470232</telephone>
										<uid>bb1d38e4af60094c0c0a7049</uid>
								</result>
			<result>
			<name>中国银行(中银大厦支行)</name>
			<location>
				<lat>31.244142</lat>
				<lng>121.50992</lng>
			</location>
							<address>浦东新区银城中路200号(东园路银城中路)</address>
										<telephone>021-50375566</telephone>
										<uid>64ff3be129d415ba91114caf</uid>
								</result>
			<result>
			<name>中国银行(期货大厦支行)</name>
			<location>
				<lat>31.231992</lat>
				<lng>121.541725</lng>
			</location>
							<address>浦东新区松林路300号2楼(浦电路松林路)</address>
										<telephone>021-68402756</telephone>
										<uid>926c3f74a3072f96d23ce330</uid>
								</result>
			<result>
			<name>中国银行期货大厦支行</name>
			<location>
				<lat>31.231815</lat>
				<lng>121.541594</lng>
			</location>
							<address>松林路300号上海期货大厦2层</address>
													<uid>01ccb5ce14f4349b5fbe86c7</uid>
								</result>
			<result>
			<name>中国工商银行(证券大厦支行)</name>
			<location>
				<lat>31.242753</lat>
				<lng>121.517337</lng>
			</location>
							<address>浦东新区浦东南路500号国家开发银行大厦1楼(近陆家嘴东路)</address>
										<telephone>(021)58403216,(021)58768215</telephone>
										<uid>75d0881ac6b1014c3a04b14e</uid>
								</result>
	  </results>
</PlaceSearchResponse>
