<?xml version="1.0" encoding="utf-8" ?> 
<PlaceSearchResponse> 
  <status>0</status>
  <message>ok</message>
  	<total>41</total>
    <results>
			<result>
			<name>松江中央公园</name>
			<location>
				<lat>31.042311</lat>
				<lng>121.232396</lng>
			</location>
							<address>园中路(松江区政府北侧)</address>
													<uid>eef2d528d30910a63be4a6f0</uid>
								</result>
			<result>
			<name>华润置地·中央公园(陈翔路)</name>
			<location>
				<lat>31.316984</lat>
				<lng>121.321161</lng>
			</location>
							<address>芳礼路99弄（宝翔路与陈翔路交叉口）</address>
													<uid>790cd37cb279557254bfff6a</uid>
								</result>
			<result>
			<name>中央公园</name>
			<location>
				<lat>31.22804</lat>
				<lng>121.425893</lng>
			</location>
							<address>上海长宁区长宁路780号</address>
										<telephone>021-62525225</telephone>
										<uid>108b1cea68580fb53586f4cb</uid>
								</result>
			<result>
			<name>中央公园</name>
			<location>
				<lat>31.225894</lat>
				<lng>121.557936</lng>
			</location>
							<address>上海市浦东新区锦绣路1001号</address>
										<telephone>(021)58337122</telephone>
										<uid>c326d891f2ffd72b8bb98806</uid>
								</result>
			<result>
			<name>莘城中央公园</name>
			<location>
				<lat>31.110749</lat>
				<lng>121.393256</lng>
			</location>
							<address>闵行区闵城路180号(近珠城路)</address>
										<telephone>(021)54152600</telephone>
										<uid>c61bd305059c3969c27da21d</uid>
								</result>
			<result>
			<name>中央公园(育秀东路)</name>
			<location>
				<lat>30.918368</lat>
				<lng>121.484295</lng>
			</location>
							<address>江海镇</address>
													<uid>4ea3f2f17e6219abaecb660b</uid>
								</result>
			<result>
			<name>安亭中央公园</name>
			<location>
				<lat>31.297076</lat>
				<lng>121.162184</lng>
			</location>
							<address>嘉定安亭镇泽普路588弄(泽普路与墨玉路交叉口东南角)</address>
													<uid>4f89ec6b9bf10fbe5b109349</uid>
								</result>
			<result>
			<name>华润·中央公园(芳菊路)</name>
			<location>
				<lat>31.319729</lat>
				<lng>121.32189</lng>
			</location>
							<address>芳礼路99弄，近宝翔路，11号线花园站以东300米</address>
													<uid>f5af03bd9b6db6fca2a9345d</uid>
								</result>
			<result>
			<name>中央公园(东门)</name>
			<location>
				<lat>31.042791</lat>
				<lng>121.236149</lng>
			</location>
							<address>江学路588弄</address>
													<uid>205af54f291077d3cb213dc1</uid>
								</result>
			<result>
			<name>莘城中央公园</name>
			<location>
				<lat>31.110858</lat>
				<lng>121.391979</lng>
			</location>
							<address>闵行区闵城路180号（近珠城路）</address>
										<telephone>(021)64599037</telephone>
										<uid>72b156da696166252cb96d8c</uid>
								</result>
	  </results>
</PlaceSearchResponse>
