<?xml version="1.0" encoding="utf-8" ?> 
<PlaceSearchResponse> 
  <status>0</status>
  <message>ok</message>
  	<total>5</total>
    <results>
			<result>
			<name>丽星温泉</name>
			<location>
				<lat>31.389837</lat>
				<lng>120.086024</lng>
			</location>
							<address>马山西环线</address>
													<uid>66b054eb7d0950181c389433</uid>
								</result>
			<result>
			<name>元一丽星温泉度假酒店</name>
			<location>
				<lat>31.390647</lat>
				<lng>120.084274</lng>
			</location>
							<address>滨湖区太湖国家旅游度假区七里风光堤99号</address>
										<telephone>0510-85356789</telephone>
										<uid>2ff414e1c6f382870b69d9b1</uid>
								</result>
			<result>
			<name>无锡元一丽星温泉</name>
			<location>
				<lat>31.389098</lat>
				<lng>120.081699</lng>
			</location>
							<address>滨湖区太湖国家旅游度假区七里风光堤99号（近灵山元一希尔顿逸林酒店）</address>
										<telephone>(0510)85356666</telephone>
										<uid>164c815d334a05b98c55ec18</uid>
								</result>
			<result>
			<name>灵山元一丽星温泉度假酒店</name>
			<location>
				<lat>31.390662</lat>
				<lng>120.084273</lng>
			</location>
							<address>滨湖区太湖国家旅游度假区七里风光堤99号(近希尔顿逸林酒店)</address>
										<telephone>(0510)85356666</telephone>
										<uid>7d5f3a0a71886f522db90887</uid>
								</result>
			<result>
			<name>无锡灵山元一丽星温泉度假酒店停车场</name>
			<location>
				<lat>31.390485</lat>
				<lng>120.083915</lng>
			</location>
							<address>太湖国家旅游度假区七里风光堤99号</address>
													<uid>497dca39851a2bcb2bb97c4f</uid>
								</result>
	  </results>
</PlaceSearchResponse>
