<?xml version="1.0" encoding="utf-8" ?> 
<PlaceSearchResponse> 
  <status>0</status>
  <message>ok</message>
  	<total>12</total>
    <results>
			<result>
			<name>上海仙霞网球中心</name>
			<location>
				<lat>31.205279</lat>
				<lng>121.393827</lng>
			</location>
							<address>长宁区虹桥路1885号(近虹许路)</address>
										<telephone>(021)62628327</telephone>
										<uid>850815e17dca1c8243e19264</uid>
								</result>
			<result>
			<name>仙霞网球中心</name>
			<location>
				<lat>31.205302</lat>
				<lng>121.393898</lng>
			</location>
							<address>长宁区虹桥路1885号（近虹许路）</address>
										<telephone>(021)62626720</telephone>
										<uid>3eb1dec5af4ba15fb5f42f0c</uid>
								</result>
			<result>
			<name>上海仙霞网球中心-停车场</name>
			<location>
				<lat>31.205225</lat>
				<lng>121.394854</lng>
			</location>
							<address>虹桥路1885号</address>
													<uid>a1478cc6f3c7ad7a48cc4af3</uid>
								</result>
			<result>
			<name>世友租车(仙霞网球中心服务点)</name>
			<location>
				<lat>31.205279</lat>
				<lng>121.39382</lng>
			</location>
							<address>长宁区仙霞网球中心停车场</address>
													<uid>0f79c458d07bb8e5ab175ada</uid>
								</result>
			<result>
			<name>方亮蟹宴</name>
			<location>
				<lat>31.205279</lat>
				<lng>121.39382</lng>
			</location>
							<address>上海闵行区虹桥路1883-1889号仙霞网球中心</address>
										<telephone>(021)62619999</telephone>
										<uid>d884f3bfc01610753586f4d7</uid>
								</result>
			<result>
			<name>缪斯高级婚纱礼服定制会馆</name>
			<location>
				<lat>31.205889</lat>
				<lng>121.394135</lng>
			</location>
							<address>长宁区虹桥路1889弄西郊华庭35号101室(近仙霞网球中心)</address>
										<telephone>(021)52393972</telephone>
										<uid>fd1ea039ad3573d90c0e6bdc</uid>
								</result>
			<result>
			<name>一珍香珍膳</name>
			<location>
				<lat>31.205279</lat>
				<lng>121.393829</lng>
			</location>
							<address>长宁区虹桥路1887号仙霞网球中心(近虹许路)</address>
										<telephone>(021)62619999</telephone>
										<uid>c8e8f63300758875aa0dd899</uid>
								</result>
			<result>
			<name>美林阁·婚宴(虹桥店)</name>
			<location>
				<lat>31.204677</lat>
				<lng>121.395203</lng>
			</location>
							<address>长宁区虹桥路1885号仙霞网球中心内(近虹许路)</address>
										<telephone>(021)62629966</telephone>
										<uid>850815e17e411d8242e19299</uid>
								</result>
			<result>
			<name>春季尚品</name>
			<location>
				<lat>31.2048</lat>
				<lng>121.393906</lng>
			</location>
							<address>虹桥路1883-1889号上海仙霞网球中心</address>
										<telephone>(021)62619999</telephone>
										<uid>b365cb67974641acfb2d61dc</uid>
								</result>
			<result>
			<name>La Casa</name>
			<location>
				<lat>31.205295</lat>
				<lng>121.393897</lng>
			</location>
							<address>长宁区虹桥路1885路仙霞网球中心(近虹许路)</address>
										<telephone>(021)62629345</telephone>
										<uid>81d6a5091719833d6e20b9f9</uid>
								</result>
	  </results>
</PlaceSearchResponse>
