<?xml version="1.0" encoding="utf-8" ?> 
<PlaceSearchResponse> 
  <status>0</status>
  <message>ok</message>
  	<total>146</total>
    <results>
			<result>
			<name>上海八万人体育场</name>
			<location>
				<lat>31.189062</lat>
				<lng>121.448785</lng>
			</location>
							<address>上海天钥桥路666号</address>
										<telephone>(021)62466666</telephone>
										<uid>392f37216c03f2de08a8d464</uid>
								</result>
			<result>
			<name>八万人体育中心</name>
			<location>
				<lat>31.18785</lat>
				<lng>121.444761</lng>
			</location>
							<address>徐汇区漕溪北路与中山南二路交界</address>
										<telephone>021-64399700</telephone>
										<uid>39d43f82b4150987a8059dde</uid>
								</result>
			<result>
			<name>八万人体育馆外场足球场</name>
			<location>
				<lat>31.189294</lat>
				<lng>121.446581</lng>
			</location>
							<address>徐汇区零陵路800号万体馆</address>
													<uid>dd18bb7edde782aa96ca07a9</uid>
								</result>
			<result>
			<name>上海八万人体育场</name>
			<location>
				<lat>31.18663</lat>
				<lng>121.446231</lng>
			</location>
							<address>徐汇区天钥桥路666号八万人体育场内（近中山南二路）</address>
										<telephone>(021)62260181</telephone>
										<uid>a293bac70801777c4251c0f5</uid>
								</result>
			<result>
			<name>八万人攀岩馆</name>
			<location>
				<lat>31.187116</lat>
				<lng>121.4467</lng>
			</location>
							<address>天钥桥路666号（八万人体育场6号大扶梯32号看台）</address>
										<telephone>(021)64265178</telephone>
										<uid>7c40f34843a49966b7265541</uid>
								</result>
			<result>
			<name>如家快捷酒店(上海徐家汇八万人体育馆地铁站店)</name>
			<location>
				<lat>31.191966</lat>
				<lng>121.44286</lng>
			</location>
							<address>徐汇区漕溪北路718号（上海体育馆站）</address>
										<telephone>(021)64388999</telephone>
										<uid>f7f5f73cd5dec956d2f49ea5</uid>
								</result>
			<result>
			<name>莫泰上海徐家汇八万人体育场天钥桥路店</name>
			<location>
				<lat>31.185062</lat>
				<lng>121.451606</lng>
			</location>
							<address>天钥桥路909号</address>
										<telephone>(021)64575088</telephone>
										<uid>d72f0df8366a79bb7dc876aa</uid>
								</result>
			<result>
			<name>上海八万人撞球馆</name>
			<location>
				<lat>31.186552</lat>
				<lng>121.44945</lng>
			</location>
							<address>徐汇区天钥桥路666号八万人体育场内(近中山南二路)</address>
										<telephone>(021)64266397</telephone>
										<uid>a3e8341c754e868c4afd3f68</uid>
								</result>
			<result>
			<name>一嗨租车(八万人体育场店)</name>
			<location>
				<lat>31.190398</lat>
				<lng>121.448423</lng>
			</location>
							<address>零陵路721号斜对面体育场25号看台下</address>
										<telephone>(021)64160981</telephone>
										<uid>c1a805ef9cd632ad60685842</uid>
								</result>
			<result>
			<name>探路者八万人体育场专卖店</name>
			<location>
				<lat>31.188931</lat>
				<lng>121.450683</lng>
			</location>
							<address>天钥桥路873</address>
													<uid>c8b5cdefab089e02130daac9</uid>
								</result>
	  </results>
</PlaceSearchResponse>
