<?xml version="1.0" encoding="utf-8" ?> 
<PlaceSearchResponse> 
  <status>0</status>
  <message>ok</message>
  	<total>241</total>
    <results>
			<result>
			<name>六灶镇</name>
			<location>
				<lat>31.122428</lat>
				<lng>121.704958</lng>
			</location>
							<address>上海市浦东新区</address>
													<uid>b8e794c0ced56d875e17c3c7</uid>
								</result>
			<result>
			<name>六灶镇安全生产事务所</name>
			<location>
				<lat>31.123672</lat>
				<lng>121.706931</lng>
			</location>
							<address>南六公路1445号附近</address>
													<uid>e2f13732073081d4a2d230cd</uid>
								</result>
			<result>
			<name>六灶镇政府</name>
			<location>
				<lat>31.109466</lat>
				<lng>121.700389</lng>
			</location>
							<address>鹿吉路300号</address>
										<telephone>(021)58162129</telephone>
										<uid>d6c5d991350dbfe931169b85</uid>
								</result>
			<result>
			<name>六灶镇卫生院</name>
			<location>
				<lat>31.123224</lat>
				<lng>121.707113</lng>
			</location>
							<address>浦东新区南汇县六灶路138号</address>
										<telephone>(021)58162674</telephone>
										<uid>bba87388fba559b9bda822a0</uid>
								</result>
			<result>
			<name>六灶镇人大</name>
			<location>
				<lat>31.122428</lat>
				<lng>121.704946</lng>
			</location>
							<address>周祝公路2376号</address>
										<telephone>(021)58162129</telephone>
										<uid>808ba1317441611b88f15d26</uid>
								</result>
			<result>
			<name>六灶镇文化站</name>
			<location>
				<lat>31.2169</lat>
				<lng>121.469163</lng>
			</location>
							<address>六灶镇文化广场新大楼2楼</address>
										<telephone>(021)58162211</telephone>
										<uid>49213f1805a47d21f5eafc50</uid>
								</result>
			<result>
			<name>六灶镇成人学校</name>
			<location>
				<lat>31.122366</lat>
				<lng>121.700805</lng>
			</location>
							<address>周祝公路2229</address>
										<telephone>(021)58162945</telephone>
										<uid>07f3c8b50aac6e1d6240a958</uid>
								</result>
			<result>
			<name>六灶镇人民政府</name>
			<location>
				<lat>31.122443</lat>
				<lng>121.704966</lng>
			</location>
							<address>周祝公路2376号</address>
										<telephone>(021)58162129</telephone>
										<uid>64c19a6a011557162fb17ea7</uid>
								</result>
			<result>
			<name>六灶镇社区卫生服务中心</name>
			<location>
				<lat>31.116801</lat>
				<lng>121.719745</lng>
			</location>
							<address>崇溪路120</address>
										<telephone>(021)58162674</telephone>
										<uid>a5097bfab4a4a97af13cbaa0</uid>
								</result>
			<result>
			<name>六灶镇鹿滨路33号</name>
			<location>
				<lat>31.112249</lat>
				<lng>121.690478</lng>
			</location>
							<address>六灶镇鹿滨路33号</address>
													<uid>8848848a6073d078c9e33caa</uid>
								</result>
	  </results>
</PlaceSearchResponse>
