<?xml version="1.0" encoding="utf-8" ?> 
<PlaceSearchResponse> 
  <status>0</status>
  <message>ok</message>
  	<total>7</total>
    <results>
			<result>
			<name>兰生大酒店美食广场</name>
			<location>
				<lat>31.298348</lat>
				<lng>121.497815</lng>
			</location>
							<address>杨浦区曲阳路1000号兰生大酒店1楼（近邯郸路）</address>
										<telephone>(021)55888000</telephone>
										<uid>06d2dffd9279c3ef89f15dbc</uid>
								</result>
			<result>
			<name>上海兰生（集团）有限公司</name>
			<location>
				<lat>31.26329</lat>
				<lng>121.4897</lng>
			</location>
							<address>上海虹口区四川北路1666号高宝新时代广场13层</address>
													<uid>5668b87a95ede262ab059d11</uid>
								</result>
			<result>
			<name>兰生国泰进出口有限公司</name>
			<location>
				<lat>31.262958</lat>
				<lng>121.490207</lng>
			</location>
							<address>四川北路1666号高宝新时代广场22层2201,2204</address>
										<telephone>021-63241133</telephone>
										<uid>cfc5651fc2fdc6f0067ce8e1</uid>
								</result>
			<result>
			<name>兰生集团上海市医药保健品进出口公司</name>
			<location>
				<lat>31.248603</lat>
				<lng>121.464551</lng>
			</location>
							<address>汉中路158号汉中广场14/15层</address>
													<uid>62d2136674240ba726e0a0d7</uid>
								</result>
			<result>
			<name>兰生集团公司人员资产管理中心</name>
			<location>
				<lat>31.262896</lat>
				<lng>121.490264</lng>
			</location>
							<address>四川北路1666边门高宝新时代广场13层1301～04</address>
													<uid>2a81922a620ccaee9ee321fa</uid>
								</result>
			<result>
			<name>米源饮料自动售货机（兰生大厦点）</name>
			<location>
				<lat>31.231529</lat>
				<lng>121.485696</lng>
			</location>
							<address>淮海中路98号金钟广场17楼大厅</address>
										<telephone>4006789090</telephone>
										<uid>abe5ac3473826d2d1ce9993e</uid>
								</result>
			<result>
			<name>上海新兰生数码</name>
			<location>
				<lat>31.253566</lat>
				<lng>121.46266</lng>
			</location>
							<address>上海市闸北区梅园路360号环龙商场3层</address>
													<uid>618bc288e345923241d63ec0</uid>
								</result>
	  </results>
</PlaceSearchResponse>
