<?xml version="1.0" encoding="utf-8" ?> 
<PlaceSearchResponse> 
  <status>0</status>
  <message>ok</message>
  	<total>546</total>
    <results>
			<result>
			<name>共康八村</name>
			<location>
				<lat>31.330757</lat>
				<lng>121.441643</lng>
			</location>
							<address>长临路924号临附近</address>
													<uid>b9179547ae814b7fd92f289e</uid>
								</result>
			<result>
			<name>共康八村</name>
			<location>
				<lat>31.330288</lat>
				<lng>121.441929</lng>
			</location>
							<address>719路;722路;741路;745路;760路;812路;850路;宝山20路</address>
													<uid>0f6f860db66e3574c8c3db33</uid>
								</result>
			<result>
			<name>宝山八村</name>
			<location>
				<lat>31.401574</lat>
				<lng>121.500425</lng>
			</location>
							<address>永清路699弄</address>
													<uid>61b173f0e311cff4e9f8533d</uid>
								</result>
			<result>
			<name>共康八村8号</name>
			<location>
				<lat>31.330495</lat>
				<lng>121.441713</lng>
			</location>
							<address>上海市宝山区</address>
													<uid>a846ce5f54f77d14d12dd6de</uid>
								</result>
			<result>
			<name>共康八村3号</name>
			<location>
				<lat>31.330047</lat>
				<lng>121.441504</lng>
			</location>
							<address>上海市宝山区</address>
													<uid>358863559a0b3032ed74f8b4</uid>
								</result>
			<result>
			<name>共康八村5号</name>
			<location>
				<lat>31.329893</lat>
				<lng>121.440777</lng>
			</location>
							<address>上海市宝山区</address>
													<uid>3d49c1a4ade284abeb12e40f</uid>
								</result>
			<result>
			<name>共康八村2号</name>
			<location>
				<lat>31.330071</lat>
				<lng>121.441666</lng>
			</location>
							<address>上海市宝山区</address>
													<uid>7119dd40ca93fedecac3dbc0</uid>
								</result>
			<result>
			<name>共康八村4号</name>
			<location>
				<lat>31.330009</lat>
				<lng>121.441329</lng>
			</location>
							<address>上海市宝山区</address>
													<uid>3657c7b46f2c031de7073886</uid>
								</result>
			<result>
			<name>共康八村1号</name>
			<location>
				<lat>31.330094</lat>
				<lng>121.441841</lng>
			</location>
							<address>长临路890号附近</address>
													<uid>2871e4838ec63e464657269a</uid>
								</result>
			<result>
			<name>共康八村66号</name>
			<location>
				<lat>31.330418</lat>
				<lng>121.438769</lng>
			</location>
							<address>共康八村附近</address>
													<uid>3fefd2ebffaa8412f82d6191</uid>
								</result>
	  </results>
</PlaceSearchResponse>
