<?xml version="1.0" encoding="utf-8" ?> 
<PlaceSearchResponse> 
  <status>0</status>
  <message>ok</message>
  	<total>150</total>
    <results>
			<result>
			<name>共和公园</name>
			<location>
				<lat>31.338291</lat>
				<lng>121.436181</lng>
			</location>
							<address>场北路408临</address>
													<uid>631c41577ecfce6331f71dd0</uid>
								</result>
			<result>
			<name>共和公园-东门</name>
			<location>
				<lat>31.338437</lat>
				<lng>121.438643</lng>
			</location>
							<address>上海市宝山区</address>
													<uid>2c6431aa7f4ffba208f5eb08</uid>
								</result>
			<result>
			<name>共和学前儿童艺术乐园</name>
			<location>
				<lat>31.053155</lat>
				<lng>121.475174</lng>
			</location>
							<address>闵行区龙吴路5396号</address>
										<telephone>15000623719</telephone>
										<uid>8aa17d8c6fe000c817948e80</uid>
								</result>
			<result>
			<name>共和公园-北门</name>
			<location>
				<lat>31.338938</lat>
				<lng>121.43671</lng>
			</location>
							<address>场北路408临</address>
													<uid>5d339d8cbc584f63ad31e5fe</uid>
								</result>
			<result>
			<name>共和公园-南门</name>
			<location>
				<lat>31.338491</lat>
				<lng>121.438755</lng>
			</location>
							<address>上海市宝山区</address>
													<uid>f3e0c6ae1febe42d0ba8d4db</uid>
								</result>
			<result>
			<name>苹果花园(共和新路二店)</name>
			<location>
				<lat>31.324626</lat>
				<lng>121.454209</lng>
			</location>
							<address>宝山区共和新路4715号（近一号线共康路站）</address>
													<uid>6835e3a707e1e057e31103c5</uid>
								</result>
			<result>
			<name>苹果花园(共和新路一店)</name>
			<location>
				<lat>31.260573</lat>
				<lng>121.470507</lng>
			</location>
							<address>上海闸北区共和新路637号(近中华新路)</address>
										<telephone>(021)56618909</telephone>
										<uid>0dc3d82dcb8a307574e5b69f</uid>
								</result>
			<result>
			<name>佳贝爱亲子乐园（共和新路店）</name>
			<location>
				<lat>31.329353</lat>
				<lng>121.4521</lng>
			</location>
							<address>宝山区共和新路4965号万达广场3楼外围金街352号</address>
										<telephone>(021)60297286</telephone>
										<uid>d8d05d5c5b5a8e1514948eb0</uid>
								</result>
			<result>
			<name>凡太奇亲子乐园(共和新路店)</name>
			<location>
				<lat>31.332245</lat>
				<lng>121.451045</lng>
			</location>
							<address>上海市闸北区共和新路5219号宝山购物中心1层</address>
													<uid>7bdbee76b80b3af4c72ba17a</uid>
								</result>
			<result>
			<name>彭浦公园</name>
			<location>
				<lat>31.310813</lat>
				<lng>121.453819</lng>
			</location>
							<address>场中路2150号(近共和新路)</address>
													<uid>a1418eb432444e7eebe582ff</uid>
								</result>
	  </results>
</PlaceSearchResponse>
