<?xml version="1.0" encoding="utf-8" ?> 
<PlaceSearchResponse> 
  <status>0</status>
  <message>ok</message>
  	<total>42</total>
    <results>
			<result>
			<name>共青国家森林公园</name>
			<location>
				<lat>31.326492</lat>
				<lng>121.558011</lng>
			</location>
							<address>上海市军工路2000号</address>
										<telephone>(021)65740586</telephone>
										<uid>449eb70004746dd826d2bb7a</uid>
								</result>
			<result>
			<name>共青国家森林公园售票处</name>
			<location>
				<lat>31.327171</lat>
				<lng>121.552348</lng>
			</location>
							<address>军工路2000号</address>
										<telephone>(021)65321376</telephone>
										<uid>7ce32a19fce1fee38605bfb4</uid>
								</result>
			<result>
			<name>上海共青森林公园度假村</name>
			<location>
				<lat>31.330132</lat>
				<lng>121.555917</lng>
			</location>
							<address>上海市杨浦区军工路2180号(近共青森林公园)</address>
										<telephone>(021)65321296</telephone>
										<uid>d146b388de4360df74026926</uid>
								</result>
			<result>
			<name>共青国家森林公园花艺展示馆</name>
			<location>
				<lat>31.325999</lat>
				<lng>121.555243</lng>
			</location>
							<address>上海市杨浦区军工路2000号共青森林公园内</address>
										<telephone>(021)65576690</telephone>
										<uid>eb24e0ad766aafcb97ec841f</uid>
								</result>
			<result>
			<name>共青国家森林公园-西门</name>
			<location>
				<lat>31.328814</lat>
				<lng>121.55253</lng>
			</location>
							<address>上海市杨浦区军工路2000号</address>
													<uid>37de60ea90c6fca0882fb510</uid>
								</result>
			<result>
			<name>共青国家森林公园东门-售票处</name>
			<location>
				<lat>31.321865</lat>
				<lng>121.559597</lng>
			</location>
							<address>嫩江路100</address>
													<uid>65bac2bbc091d376bbbd6371</uid>
								</result>
			<result>
			<name>共青国家森林公园多功能活动中心</name>
			<location>
				<lat>31.327765</lat>
				<lng>121.554803</lng>
			</location>
							<address>上海市杨浦区军工路2000号共青森林公园内</address>
													<uid>50ed161d50b9159b07026f72</uid>
								</result>
			<result>
			<name>共青国家森林公园</name>
			<location>
				<lat>31.326091</lat>
				<lng>121.553599</lng>
			</location>
							<address>上海市杨浦区军工路2000号共青森林公园内</address>
										<telephone>(021)65328194</telephone>
										<uid>98f6cb745258f3319ce3212f</uid>
								</result>
			<result>
			<name>共青国家森林公园</name>
			<location>
				<lat>31.327989</lat>
				<lng>121.553429</lng>
			</location>
							<address>杨浦区军工路2000号共青森林公园内(近海盗船)</address>
										<telephone>(021)65571088</telephone>
										<uid>8e6a3fef31bdac26ca09f000</uid>
								</result>
			<result>
			<name>共青国家森林公园-停车场</name>
			<location>
				<lat>31.326978</lat>
				<lng>121.552374</lng>
			</location>
							<address>杨浦区军工路2000号共青森林公园门口(近嫩江路)</address>
													<uid>34c26317b4b5c4e6a2a93403</uid>
								</result>
	  </results>
</PlaceSearchResponse>
