<?xml version="1.0" encoding="utf-8" ?> 
<PlaceSearchResponse> 
  <status>0</status>
  <message>ok</message>
  	<total>2645</total>
    <results>
			<result>
			<name>北京西路</name>
			<location>
				<lat>31.236361</lat>
				<lng>121.461355</lng>
			</location>
							<address>延安西路545弄</address>
													<uid>51953ca684ab343c4bcc4adb</uid>
								</result>
			<result>
			<name>北京西路</name>
			<location>
				<lat>31.237465</lat>
				<lng>121.464759</lng>
			</location>
							<address>徐汇区新乐路</address>
													<uid>5471103766b9cedf2cb17ed9</uid>
								</result>
			<result>
			<name>北京西路</name>
			<location>
				<lat>31.241934</lat>
				<lng>121.476284</lng>
			</location>
							<address>上海市黄浦区</address>
													<uid>da4af32affc6929db23c81de</uid>
								</result>
			<result>
			<name>上海市医学会(北京西路)</name>
			<location>
				<lat>31.232463</lat>
				<lng>121.451559</lng>
			</location>
							<address>静安区北京西路1623号(近胶州路)</address>
													<uid>fa01e93701a77b53764ff1ab</uid>
								</result>
			<result>
			<name>房地大厦(北京西路)</name>
			<location>
				<lat>31.242274</lat>
				<lng>121.477594</lng>
			</location>
							<address>上海黄浦区北京西路95号</address>
													<uid>16fccd4d61c8a0ef1e1d116c</uid>
								</result>
			<result>
			<name>海底捞(北京西路店)</name>
			<location>
				<lat>31.236724</lat>
				<lng>121.461078</lng>
			</location>
							<address>上海静安区北京西路1068号3楼(近江宁路)</address>
										<telephone>(021)62589750</telephone>
										<uid>9f97b1c58af6b41fb74f5499</uid>
								</result>
			<result>
			<name>北京西路泰兴路</name>
			<location>
				<lat>31.237564</lat>
				<lng>121.464424</lng>
			</location>
							<address>15路;21路;41路;112路;301路;315路;927路;955路</address>
													<uid>c21a9e20df4728442ad7abfe</uid>
								</result>
			<result>
			<name>申活馆(北京西路店)</name>
			<location>
				<lat>31.230394</lat>
				<lng>121.449045</lng>
			</location>
							<address>北京西路1829号1层</address>
										<telephone>(021)62487476</telephone>
										<uid>09d4fafd192e4f11f6c59c3e</uid>
								</result>
			<result>
			<name>康辉旅游(北京西路店)</name>
			<location>
				<lat>31.234825</lat>
				<lng>121.457102</lng>
			</location>
							<address>北京西路1287号机电研究设计院2-3楼</address>
										<telephone>021-61819888,400-620-6888</telephone>
										<uid>1ccd76ee2d7c4782ab0dd831</uid>
								</result>
			<result>
			<name>胶州路北京西路</name>
			<location>
				<lat>31.233023</lat>
				<lng>121.450624</lng>
			</location>
							<address>40路;328路;824路;830路</address>
													<uid>ab5199c0810fb91eb6147fd3</uid>
								</result>
	  </results>
</PlaceSearchResponse>
