<?xml version="1.0" encoding="utf-8" ?> 
<PlaceSearchResponse> 
  <status>0</status>
  <message>ok</message>
  	<total>9</total>
    <results>
			<result>
			<name>美林小厨北外滩四平路店</name>
			<location>
				<lat>31.267441</lat>
				<lng>121.495482</lng>
			</location>
							<address>虹口区四平路257号虹口世纪酒店1-2楼(溧阳路附近)</address>
										<telephone>(021)65219411</telephone>
										<uid>680fb703788773858bb988cc</uid>
								</result>
			<result>
			<name>澳门豆捞坊(高阳路店)</name>
			<location>
				<lat>31.264733</lat>
				<lng>121.504246</lng>
			</location>
							<address>北外滩高阳路690号继光中学旁边</address>
										<telephone>(021)55953788</telephone>
										<uid>63727d11e01f3ecabda240cb</uid>
								</result>
			<result>
			<name>锦江之星旅馆(北外滩店)停车场-出入口</name>
			<location>
				<lat>31.265998</lat>
				<lng>121.522063</lng>
			</location>
							<address>长阳路555号附近</address>
													<uid>e0fff7b3a5d66835128824f0</uid>
								</result>
			<result>
			<name>南京银行24小时自助银行(上海北外滩支行)</name>
			<location>
				<lat>31.257394</lat>
				<lng>121.509201</lng>
			</location>
							<address>东长治路762号附近</address>
													<uid>1653089a3eecaa68c4effbb1</uid>
								</result>
			<result>
			<name>桔子水晶酒店·公平路北外滩</name>
			<location>
				<lat>31.26021</lat>
				<lng>121.511208</lng>
			</location>
							<address>上海东大名路1191号</address>
										<telephone>(021)61972196</telephone>
										<uid>1fb955c831b7f1edf82d6108</uid>
								</result>
			<result>
			<name>99旅馆连锁(上海北外滩延吉中路地铁站店)</name>
			<location>
				<lat>31.290364</lat>
				<lng>121.539169</lng>
			</location>
							<address>上海市杨浦区延吉中路95号（近永吉路）</address>
										<telephone>(021)65308299</telephone>
										<uid>14076dee207d6eed02294f46</uid>
								</result>
			<result>
			<name>莫泰168北外滩四平路店</name>
			<location>
				<lat>31.271639</lat>
				<lng>121.497852</lng>
			</location>
							<address>上海市虹口区四平路333号（近四达路）</address>
										<telephone>(021)51577777</telephone>
										<uid>504d6113c6ea03aa4657261f</uid>
								</result>
			<result>
			<name>7天连锁酒店(上海北外滩店)</name>
			<location>
				<lat>31.258258</lat>
				<lng>121.505401</lng>
			</location>
							<address>上海唐山路145号(12号线国际客运中心站1号出口左拐8分钟左右)</address>
										<telephone>(021)65862277</telephone>
										<uid>0a15c7ecde8a93e5ed74f81b</uid>
								</result>
			<result>
			<name>莫泰168（上海北外滩大连路地铁站店）</name>
			<location>
				<lat>31.261708</lat>
				<lng>121.520176</lng>
			</location>
							<address>霍山路300号</address>
													<uid>28b9e6dee2173301a10464f9</uid>
								</result>
	  </results>
</PlaceSearchResponse>
