<?xml version="1.0" encoding="utf-8" ?> 
<PlaceSearchResponse> 
  <status>0</status>
  <message>ok</message>
  	<total>92</total>
    <results>
			<result>
			<name>北蔡广场</name>
			<location>
				<lat>31.187525</lat>
				<lng>121.561144</lng>
			</location>
							<address>上海市浦东新区</address>
													<uid>75036835de97fcae5f0d02b0</uid>
								</result>
			<result>
			<name>北蔡休闲广场</name>
			<location>
				<lat>31.189943</lat>
				<lng>121.56207</lng>
			</location>
							<address>上海市浦东新区北中路187弄15号</address>
										<telephone>(021)50917531</telephone>
										<uid>2197594445c5f1fca7c75644</uid>
								</result>
			<result>
			<name>北蔡家具广场</name>
			<location>
				<lat>31.198507</lat>
				<lng>121.581035</lng>
			</location>
							<address>高科西路4037号</address>
										<telephone>(021)58910022</telephone>
										<uid>631c41570df5fd7831f71dc7</uid>
								</result>
			<result>
			<name>北蔡家居广场(招呼站)</name>
			<location>
				<lat>31.19765</lat>
				<lng>121.580273</lng>
			</location>
							<address>浦东12路</address>
													<uid>96d264c41e666f6d2bb97c38</uid>
								</result>
			<result>
			<name>北蔡百货商场</name>
			<location>
				<lat>31.193866</lat>
				<lng>121.560069</lng>
			</location>
							<address>北蔡镇浦东北蔡大街33-41号</address>
										<telephone>(021)67895794</telephone>
										<uid>cdef4edf338ed75729d7ab8b</uid>
								</result>
			<result>
			<name>宜家家居北蔡商场</name>
			<location>
				<lat>31.166817</lat>
				<lng>121.568189</lng>
			</location>
							<address>临御路550号</address>
										<telephone>(021)20304532</telephone>
										<uid>d1fa447d47ba21ef0782c201</uid>
								</result>
			<result>
			<name>北蔡家具广场（高科西路店）</name>
			<location>
				<lat>31.198731</lat>
				<lng>121.580749</lng>
			</location>
							<address>浦东新区高科西路4037号</address>
										<telephone>(021)58910022</telephone>
										<uid>e350217bf8725a082b3a9f0d</uid>
								</result>
			<result>
			<name>宜家家居(上海北蔡商场店)</name>
			<location>
				<lat>31.167914</lat>
				<lng>121.56908</lng>
			</location>
							<address>浦东新区北蔡镇临御路550号(中环沪南路口)</address>
										<telephone>4008002345</telephone>
										<uid>6a2eea0cdc0109966140a990</uid>
								</result>
			<result>
			<name>北蔡购物商场五金交电商店</name>
			<location>
				<lat>31.193727</lat>
				<lng>121.560561</lng>
			</location>
							<address>北蔡大街29号附近</address>
													<uid>928258703faa0419734b8785</uid>
								</result>
			<result>
			<name>北蔡休闲广场停车库</name>
			<location>
				<lat>31.19036</lat>
				<lng>121.562888</lng>
			</location>
							<address>上海市浦东新区</address>
													<uid>0c97d799364775e63913fd3d</uid>
								</result>
	  </results>
</PlaceSearchResponse>
