<?xml version="1.0" encoding="utf-8" ?> 
<PlaceSearchResponse> 
  <status>0</status>
  <message>ok</message>
  	<total>56</total>
    <results>
			<result>
			<name>华山儿童公园</name>
			<location>
				<lat>31.210499</lat>
				<lng>121.441</lng>
			</location>
							<address>上海市徐汇区华山路1575号</address>
													<uid>005861089e27baa447e274a9</uid>
								</result>
			<result>
			<name>华山公园</name>
			<location>
				<lat>31.210615</lat>
				<lng>121.440863</lng>
			</location>
							<address>长宁区华山路1575号（华山路泰安路）</address>
										<telephone>(021)62599844</telephone>
										<uid>9993df5ea92d24153310affa</uid>
								</result>
			<result>
			<name>华山花园</name>
			<location>
				<lat>31.218235</lat>
				<lng>121.440722</lng>
			</location>
							<address>华山花园位于长宁江苏路813号</address>
										<telephone>(021)62515062</telephone>
										<uid>923ffd001bdd49b6d92f281d</uid>
								</result>
			<result>
			<name>华山儿童公园-西门</name>
			<location>
				<lat>31.210414</lat>
				<lng>121.440865</lng>
			</location>
							<address>华山路1575</address>
													<uid>3e6af6522cb62911306212ba</uid>
								</result>
			<result>
			<name>华山花园大厦</name>
			<location>
				<lat>31.218235</lat>
				<lng>121.440722</lng>
			</location>
							<address>上海市长宁区江苏路813号</address>
													<uid>f02aa42e46f84d0a081cc7b5</uid>
								</result>
			<result>
			<name>华山儿童公园-儿童乐园</name>
			<location>
				<lat>31.210375</lat>
				<lng>121.441084</lng>
			</location>
							<address>华山路1575华山儿童公园内</address>
										<telephone>(021)62525225</telephone>
										<uid>0813e8185679bef99d9d68ec</uid>
								</result>
			<result>
			<name>华山花园(西一门)</name>
			<location>
				<lat>31.21805</lat>
				<lng>121.44097</lng>
			</location>
							<address>华山路1639</address>
													<uid>91364cb924f7a80d0b1cc72a</uid>
								</result>
			<result>
			<name>华山花园-西二门</name>
			<location>
				<lat>31.218197</lat>
				<lng>121.440754</lng>
			</location>
							<address>江苏路813</address>
													<uid>b2d7dc93a60c50fbeddfcaed</uid>
								</result>
			<result>
			<name>华山绿地</name>
			<location>
				<lat>31.213201</lat>
				<lng>121.438959</lng>
			</location>
							<address>华山路1500号</address>
										<telephone>(021)62813135</telephone>
										<uid>735ab8d91d603d916c3e1b1c</uid>
								</result>
			<result>
			<name>华山花园车库</name>
			<location>
				<lat>31.218027</lat>
				<lng>121.440821</lng>
			</location>
							<address>长宁区江苏路819号</address>
													<uid>759c6878c7e2c39d04026ff4</uid>
								</result>
	  </results>
</PlaceSearchResponse>
