<?xml version="1.0" encoding="utf-8" ?> 
<PlaceSearchResponse> 
  <status>0</status>
  <message>ok</message>
  	<total>8</total>
    <results>
			<result>
			<name>上海南桥国际商业广场</name>
			<location>
				<lat>30.919685</lat>
				<lng>121.502548</lng>
			</location>
							<address>上海市浦东新区金海路3399号</address>
										<telephone>(021)67185555</telephone>
										<uid>a5097bfa53b20862f03cba56</uid>
								</result>
			<result>
			<name>南桥国际商业广场西门</name>
			<location>
				<lat>30.918941</lat>
				<lng>121.499625</lng>
			</location>
							<address>上海市奉贤区</address>
										<telephone>(021)67185555</telephone>
										<uid>f8ffd113fd4ef5128f55ec86</uid>
								</result>
			<result>
			<name>南桥国际商业广场北门</name>
			<location>
				<lat>30.920196</lat>
				<lng>121.500194</lng>
			</location>
							<address>上海市奉贤区</address>
													<uid>257a1853aaa25fed095cb3b5</uid>
								</result>
			<result>
			<name>上海南桥国际商业广场-西南门</name>
			<location>
				<lat>30.919251</lat>
				<lng>121.499629</lng>
			</location>
							<address>上海市奉贤区</address>
													<uid>df2096b56385cb41adb22a81</uid>
								</result>
			<result>
			<name>上海南桥国际商业广场-东北门</name>
			<location>
				<lat>30.919809</lat>
				<lng>121.502498</lng>
			</location>
							<address>金海路3399号</address>
										<telephone>(021)67185555</telephone>
										<uid>2e0b44a015957e364afc8dc3</uid>
								</result>
			<result>
			<name>上海南桥国际商业广场-西北门</name>
			<location>
				<lat>30.920196</lat>
				<lng>121.500429</lng>
			</location>
							<address>上海市奉贤区</address>
													<uid>006c283079523be3c92915d9</uid>
								</result>
			<result>
			<name>巴贝拉(南桥店)</name>
			<location>
				<lat>30.922047</lat>
				<lng>121.49163</lng>
			</location>
							<address>上海近郊奉贤区南桥镇南方国际商业广场美人鱼休闲街2楼(近南桥百联)</address>
										<telephone>(021)61189866</telephone>
										<uid>4eb3b53357457b6c420245e8</uid>
								</result>
			<result>
			<name>上海誉胜商务（奉贤区分公司）</name>
			<location>
				<lat>30.923565</lat>
				<lng>121.478815</lng>
			</location>
							<address>南桥镇解放东路1018弄1号楼508室（翡翠国际广场）</address>
										<telephone>(021)34220879</telephone>
										<uid>5cd9b6201249a8f200ec01b8</uid>
								</result>
	  </results>
</PlaceSearchResponse>
