<?xml version="1.0" encoding="utf-8" ?> 
<PlaceSearchResponse> 
  <status>0</status>
  <message>ok</message>
  	<total>10</total>
    <results>
			<result>
			<name>南苑公园南园</name>
			<location>
				<lat>31.37736</lat>
				<lng>121.257903</lng>
			</location>
							<address>天池路群裕路路口以南</address>
										<telephone>(021)63038324</telephone>
										<uid>b4334da63c8825acbb17e79a</uid>
								</result>
			<result>
			<name>福寿南园</name>
			<location>
				<lat>31.105207</lat>
				<lng>121.144439</lng>
			</location>
							<address>枫泾村路附近</address>
													<uid>9f97b1c5afa09705b64f5455</uid>
								</result>
			<result>
			<name>南园滨江绿地</name>
			<location>
				<lat>31.199233</lat>
				<lng>121.481748</lng>
			</location>
							<address>龙华东路800号(打浦路口)</address>
										<telephone>(021)63038324</telephone>
										<uid>2d71b4094170bd5d8f1a891d</uid>
								</result>
			<result>
			<name>海宴餐厅</name>
			<location>
				<lat>31.198831</lat>
				<lng>121.481366</lng>
			</location>
							<address>卢湾区龙华东路800号南园公园西门内(近打浦路)</address>
										<telephone>(021)63180728</telephone>
										<uid>ec7de176e24b2ad438221c86</uid>
								</result>
			<result>
			<name>汉江韩国料理</name>
			<location>
				<lat>31.19897</lat>
				<lng>121.480091</lng>
			</location>
							<address>上海市卢湾区打浦路628号海外滩广场5号楼301室(近南园公园)</address>
										<telephone>(021)54188570</telephone>
										<uid>d09433cb85bc121688f15d84</uid>
								</result>
			<result>
			<name>海宴精致料理</name>
			<location>
				<lat>31.200021</lat>
				<lng>121.481393</lng>
			</location>
							<address>卢湾区龙华东路800号南园公园西门内(近打浦路)</address>
										<telephone>(021)63180728</telephone>
										<uid>c9cf3439d539546a8d772778</uid>
								</result>
			<result>
			<name>海宴咖啡厅</name>
			<location>
				<lat>31.200021</lat>
				<lng>121.481393</lng>
			</location>
							<address>卢湾区龙华东路800号南园公园西门内(近打浦路)</address>
										<telephone>(021)63180728</telephone>
										<uid>2ce1d59193d98ce72a02e100</uid>
								</result>
			<result>
			<name>Park View Cafe</name>
			<location>
				<lat>31.198831</lat>
				<lng>121.481366</lng>
			</location>
							<address>上海卢湾区龙华东路800号南园公园西门内(近打浦路)</address>
										<telephone>(021)63180728</telephone>
										<uid>a0767316cfe0674f4bfc8df4</uid>
								</result>
			<result>
			<name>公厕</name>
			<location>
				<lat>31.198994</lat>
				<lng>121.482351</lng>
			</location>
							<address>龙华东路800号南园公园</address>
													<uid>59141f96c6018154c7f50db6</uid>
								</result>
			<result>
			<name>南园滨江绿地东区</name>
			<location>
				<lat>31.197094</lat>
				<lng>121.484469</lng>
			</location>
							<address>上海市卢湾区</address>
													<uid>1ff8241796e78909bbbd63a8</uid>
								</result>
	  </results>
</PlaceSearchResponse>
