<?xml version="1.0" encoding="utf-8" ?> 
<PlaceSearchResponse> 
  <status>0</status>
  <message>ok</message>
  	<total>7</total>
    <results>
			<result>
			<name>县林场</name>
			<location>
				<lat>30.878759</lat>
				<lng>121.876877</lng>
			</location>
							<address>上海市浦东新区</address>
													<uid>324965e91144d601353a7168</uid>
								</result>
			<result>
			<name>崇明县林业科技推广站</name>
			<location>
				<lat>31.628037</lat>
				<lng>121.414458</lng>
			</location>
							<address>寒山寺路166</address>
													<uid>c8667dc8c293ebdad6b74efa</uid>
								</result>
			<result>
			<name>崇明县林业行政执法中队</name>
			<location>
				<lat>31.628037</lat>
				<lng>121.414461</lng>
			</location>
							<address>寒山寺路166</address>
													<uid>da9611d4e506c88b25d2bbeb</uid>
								</result>
			<result>
			<name>崇明县林业站</name>
			<location>
				<lat>31.627945</lat>
				<lng>121.414329</lng>
			</location>
							<address>寒山寺路166</address>
										<telephone>(021)39611343</telephone>
										<uid>550fd5f9b945a578931fc955</uid>
								</result>
			<result>
			<name>崇明县城桥镇林业工作站</name>
			<location>
				<lat>31.640457</lat>
				<lng>121.410326</lng>
			</location>
							<address>中津桥路22</address>
													<uid>f562fdb3e22d7df8c27da2d0</uid>
								</result>
			<result>
			<name>崇明县城桥镇林业工作站</name>
			<location>
				<lat>31.622963</lat>
				<lng>121.41204</lng>
			</location>
							<address>鳌山路629附近</address>
													<uid>7645d86d0f3c634d3617dcf8</uid>
								</result>
			<result>
			<name>崇明县林业局</name>
			<location>
				<lat>31.629213</lat>
				<lng>121.408635</lng>
			</location>
							<address>东门路181</address>
													<uid>28e700f1a5618f7c095cb306</uid>
								</result>
	  </results>
</PlaceSearchResponse>
