<?xml version="1.0" encoding="utf-8" ?> 
<PlaceSearchResponse> 
  <status>0</status>
  <message>ok</message>
  	<total>54</total>
    <results>
			<result>
			<name>召楼古镇,召稼楼</name>
			<location>
				<lat>31.080924</lat>
				<lng>121.555589</lng>
			</location>
							<address>上海闵行区召楼路(近杜行公路)</address>
													<uid>251374c96e88b026a11de945</uid>
								</result>
			<result>
			<name>召稼楼古镇</name>
			<location>
				<lat>31.081416</lat>
				<lng>121.555619</lng>
			</location>
							<address>闵行10路</address>
													<uid>d8d31d100e275909110daa49</uid>
								</result>
			<result>
			<name>召稼楼古镇停车场</name>
			<location>
				<lat>31.081814</lat>
				<lng>121.556045</lng>
			</location>
							<address>闵行区浦江镇革新村内沈杜公路(近青年路)</address>
													<uid>7304ebb6e0b28c4d4f3a5932</uid>
								</result>
			<result>
			<name>上海召稼楼古镇建设发展有限公司</name>
			<location>
				<lat>31.080855</lat>
				<lng>121.554841</lng>
			</location>
							<address>浦江镇沈杜公路2075号</address>
										<telephone>(021)64117398</telephone>
										<uid>da80c9d16b98ca248605bf47</uid>
								</result>
			<result>
			<name>召稼楼古镇旅游资源管理有限公司</name>
			<location>
				<lat>31.07811</lat>
				<lng>121.556339</lng>
			</location>
							<address>浦江镇沈杜公路</address>
													<uid>d3a69c6ccc8e021dc056acbc</uid>
								</result>
			<result>
			<name>古镇第一湾</name>
			<location>
				<lat>31.081226</lat>
				<lng>121.556553</lng>
			</location>
							<address>闵行区浦江镇召稼楼古镇兴东街1号(近沈杜公路)</address>
													<uid>e42ce4dd95a4ecc978f79660</uid>
								</result>
			<result>
			<name>古镇人家</name>
			<location>
				<lat>31.0747</lat>
				<lng>121.549404</lng>
			</location>
							<address>闵行区召稼楼古镇美食一条街</address>
										<telephone>13817647245</telephone>
										<uid>f0a00f0b0d8c10e1f603b83f</uid>
								</result>
			<result>
			<name>沈家花园(召稼楼店)</name>
			<location>
				<lat>31.07944</lat>
				<lng>121.555465</lng>
			</location>
							<address>上海闵行区浦江镇召稼楼古镇内资训路1号(沈杜公路近苏召路)</address>
										<telephone>(021)67282777</telephone>
										<uid>4ce10ce66a65fab8451a32b0</uid>
								</result>
			<result>
			<name>召稼楼有机米行</name>
			<location>
				<lat>31.118478</lat>
				<lng>121.388296</lng>
			</location>
							<address>闵行区召稼楼古镇保南街28号</address>
													<uid>e2fcd6de2b20eb0ef9dc852c</uid>
								</result>
			<result>
			<name>老八样酒楼</name>
			<location>
				<lat>31.080994</lat>
				<lng>121.555508</lng>
			</location>
							<address>沈杜公路召稼楼古镇兴东街15号</address>
										<telephone>13816607922</telephone>
										<uid>f63fd0b90a169a0d38e4a63e</uid>
								</result>
	  </results>
</PlaceSearchResponse>
