<?xml version="1.0" encoding="utf-8" ?> 
<PlaceSearchResponse> 
  <status>0</status>
  <message>ok</message>
  	<total>22</total>
    <results>
			<result>
			<name>上海和平影都</name>
			<location>
				<lat>31.2387</lat>
				<lng>121.482533</lng>
			</location>
							<address>上海市黄浦区西藏中路290号近汉口路</address>
										<telephone>021-63225252</telephone>
										<uid>00f1c7fbb62bce06c056ac66</uid>
								</result>
			<result>
			<name>和平影都售票处</name>
			<location>
				<lat>31.238245</lat>
				<lng>121.483258</lng>
			</location>
							<address>上海市黄浦区西藏中路268号上海来福士广场1层</address>
													<uid>b486a95f7895448bd0ff234b</uid>
								</result>
			<result>
			<name>和平影都书画展示厅</name>
			<location>
				<lat>31.238662</lat>
				<lng>121.482471</lng>
			</location>
							<address>黄浦区西藏中路268号和平影都3楼（近福州路）</address>
										<telephone>(021)57652812</telephone>
										<uid>ab0e2f017621bc4807fef5b2</uid>
								</result>
			<result>
			<name>和平影都卖品部</name>
			<location>
				<lat>31.238669</lat>
				<lng>121.48247</lng>
			</location>
							<address>上海黄浦区西藏中路290号和平影都1楼(汉口路西藏中路)</address>
													<uid>5e53af1aad00cd464151c04d</uid>
								</result>
			<result>
			<name>肯德基 和平影都店</name>
			<location>
				<lat>31.238669</lat>
				<lng>121.486721</lng>
			</location>
							<address>南京东路299号附近南京路步行街(西藏中路)</address>
										<telephone>(021)33041267,4008823823</telephone>
										<uid>b8fd8460136402532811d160</uid>
								</result>
			<result>
			<name>魔维世界</name>
			<location>
				<lat>31.238716</lat>
				<lng>121.48262</lng>
			</location>
							<address>西藏中路290号和平影都</address>
													<uid>caa3bffd2b726fd7d13ce35d</uid>
								</result>
			<result>
			<name>8克拉创意婚礼会所</name>
			<location>
				<lat>31.238662</lat>
				<lng>121.482471</lng>
			</location>
							<address>黄浦区西藏中路268号来福士广场和平影都7楼</address>
													<uid>883b2e786e87e59ffa0cadbd</uid>
								</result>
			<result>
			<name>YOUR ART SPACE</name>
			<location>
				<lat>31.239071</lat>
				<lng>121.482603</lng>
			</location>
							<address>黄浦区汉口路766号沐恩堂附楼2楼(来福士和平影都对面)</address>
										<telephone>(021)33080536,13524266354</telephone>
										<uid>ef19dd170dea2e8e04026f14</uid>
								</result>
			<result>
			<name>双胜休闲咖啡厅</name>
			<location>
				<lat>31.238731</lat>
				<lng>121.482636</lng>
			</location>
							<address>西藏中路290号和平影都</address>
										<telephone>(021)63518657</telephone>
										<uid>a2d4a72f86b3c320911fc908</uid>
								</result>
			<result>
			<name>DO WED 韩国多美婚礼策划</name>
			<location>
				<lat>31.238662</lat>
				<lng>121.48248</lng>
			</location>
							<address>黄浦区西藏中路290号来福士广场和平影都7楼</address>
													<uid>9d97219d042bd1c414b54b2d</uid>
								</result>
	  </results>
</PlaceSearchResponse>
