<?xml version="1.0" encoding="utf-8" ?> 
<PlaceSearchResponse> 
  <status>0</status>
  <message>ok</message>
  	<total>13</total>
    <results>
			<result>
			<name>上海嘉定博物馆</name>
			<location>
				<lat>31.386693</lat>
				<lng>121.259687</lng>
			</location>
							<address>嘉定区嘉定镇南大街183号</address>
										<telephone>(021)59919581</telephone>
										<uid>8cba4bb03150c0f9ad045716</uid>
								</result>
			<result>
			<name>嘉定博物馆</name>
			<location>
				<lat>31.386539</lat>
				<lng>121.259802</lng>
			</location>
							<address>嘉定区南大街183号孔庙内</address>
										<telephone>(021)59928800,(021)59530379</telephone>
										<uid>b6c36136e47d4efba104640a</uid>
								</result>
			<result>
			<name>嘉定竹刻博物馆</name>
			<location>
				<lat>31.388959</lat>
				<lng>121.258152</lng>
			</location>
							<address>嘉定区南大街321号嘉定别墅内</address>
										<telephone>(021)59537232</telephone>
										<uid>8d96925cddf5d444c1f1cfea</uid>
								</result>
			<result>
			<name>上海市嘉定武科举博物馆</name>
			<location>
				<lat>31.420573</lat>
				<lng>121.275056</lng>
			</location>
							<address>新建一路2259号</address>
													<uid>6102b9bfa797c8a50c0e6b13</uid>
								</result>
			<result>
			<name>嘉定孔庙</name>
			<location>
				<lat>31.386878</lat>
				<lng>121.259266</lng>
			</location>
							<address>嘉定区南大街183号(近汇龙潭)</address>
										<telephone>(021)59919581</telephone>
										<uid>d6ee8724076c93e1a8f0cdea</uid>
								</result>
			<result>
			<name>上海汽车博物馆</name>
			<location>
				<lat>31.284624</lat>
				<lng>121.176653</lng>
			</location>
							<address>嘉定区安亭博园路7565号(近墨玉南路)</address>
										<telephone>(021)69550055</telephone>
										<uid>4bb049d98f556a5e9900504e</uid>
								</result>
			<result>
			<name>翥云博物馆</name>
			<location>
				<lat>31.314932</lat>
				<lng>121.157052</lng>
			</location>
							<address>嘉定区新源路1375号</address>
													<uid>cfec010d4969dde2ae0457c3</uid>
								</result>
			<result>
			<name>太太乐鲜味博物馆</name>
			<location>
				<lat>31.264462</lat>
				<lng>121.311206</lng>
			</location>
							<address>嘉定区江桥镇星华公路969号太太乐食品公司厂区内</address>
										<telephone>(021)39987919</telephone>
										<uid>ca79ba0990cde3cb230220e0</uid>
								</result>
			<result>
			<name>四海壶具博物馆(曹安路分馆)</name>
			<location>
				<lat>31.262016</lat>
				<lng>121.363538</lng>
			</location>
							<address>嘉定区曹安公路1978号（近外环路）</address>
										<telephone>(021)59185220</telephone>
										<uid>82c38dc11013558009a8d44a</uid>
								</result>
			<result>
			<name>中国科举博物馆</name>
			<location>
				<lat>31.386539</lat>
				<lng>121.259802</lng>
			</location>
							<address>嘉定区南大街183号</address>
										<telephone>(021)59530379</telephone>
										<uid>c3b1aea1377149b8704b87c2</uid>
								</result>
	  </results>
</PlaceSearchResponse>
