<?xml version="1.0" encoding="utf-8" ?> 
<PlaceSearchResponse> 
  <status>0</status>
  <message>ok</message>
  	<total>9</total>
    <results>
			<result>
			<name>嘉莲华国际商业广场</name>
			<location>
				<lat>31.266044</lat>
				<lng>121.352149</lng>
			</location>
							<address>上海市嘉定区曹安路2206号</address>
										<telephone>(021)69119288</telephone>
										<uid>038a6e43f646fddfb13c8141</uid>
								</result>
			<result>
			<name>嘉莲华国际商业广场停车场</name>
			<location>
				<lat>31.266353</lat>
				<lng>121.353294</lng>
			</location>
							<address>上海市嘉定区</address>
													<uid>76d819fe7835e9fb88db73ee</uid>
								</result>
			<result>
			<name>嘉莲华国际商业广场-停车场</name>
			<location>
				<lat>31.267526</lat>
				<lng>121.35047</lng>
			</location>
							<address>上海市嘉定区</address>
													<uid>7d987862f34e61a7081cc7b4</uid>
								</result>
			<result>
			<name>嘉莲华国际商业广场三号通道</name>
			<location>
				<lat>31.265767</lat>
				<lng>121.352592</lng>
			</location>
							<address>曹安公路2118号</address>
													<uid>a011982863c1919f7702696f</uid>
								</result>
			<result>
			<name>嘉莲华国际商业广场二号通道</name>
			<location>
				<lat>31.265697</lat>
				<lng>121.353224</lng>
			</location>
							<address>上海市嘉定区</address>
													<uid>178e98ec4961ace122f01773</uid>
								</result>
			<result>
			<name>嘉莲华国际商业广场一号通道</name>
			<location>
				<lat>31.26596</lat>
				<lng>121.353294</lng>
			</location>
							<address>上海市嘉定区</address>
													<uid>f9419868686826c708f5ebb7</uid>
								</result>
			<result>
			<name>嘉莲华国际商业广场二层停车场出入口</name>
			<location>
				<lat>31.266577</lat>
				<lng>121.35231</lng>
			</location>
							<address>上海市嘉定区</address>
													<uid>f7cd094c9bb968371b94c614</uid>
								</result>
			<result>
			<name>上海顶意自动化仪表有限公司</name>
			<location>
				<lat>31.266994</lat>
				<lng>121.350446</lng>
			</location>
							<address>上海嘉莲华国际商业广场曹安路2266号330室</address>
										<telephone>(021)39539811</telephone>
										<uid>a7edc7dbbe8c324643ab9a2f</uid>
								</result>
			<result>
			<name>朗欣特（沃尔玛江桥店）</name>
			<location>
				<lat>31.26606</lat>
				<lng>121.351921</lng>
			</location>
							<address>曹安公路2200号嘉联华国际商业广场</address>
										<telephone>13636342237</telephone>
										<uid>c0ba87b8c9fcd58e9ff7797a</uid>
								</result>
	  </results>
</PlaceSearchResponse>
