<?xml version="1.0" encoding="utf-8" ?> 
<PlaceSearchResponse> 
  <status>0</status>
  <message>ok</message>
  	<total>5</total>
    <results>
			<result>
			<name>四平科技公园</name>
			<location>
				<lat>31.293188</lat>
				<lng>121.512869</lng>
			</location>
							<address>四平路1777</address>
													<uid>6deee30820f7ff6b29fc4821</uid>
								</result>
			<result>
			<name>四平科技公园</name>
			<location>
				<lat>31.292648</lat>
				<lng>121.515213</lng>
			</location>
							<address>杨浦区四平路1777号</address>
													<uid>d80514676c707ca242d63ead</uid>
								</result>
			<result>
			<name>四平科技公园-北门</name>
			<location>
				<lat>31.294777</lat>
				<lng>121.51239</lng>
			</location>
							<address>国泰路127号</address>
													<uid>e3082848f869d4beb34c4921</uid>
								</result>
			<result>
			<name>四平科技公园-东门</name>
			<location>
				<lat>31.292655</lat>
				<lng>121.515196</lng>
			</location>
							<address>四平路1777</address>
										<telephone>(021)65101142</telephone>
										<uid>0bc3863e8e49d76f26d2bb63</uid>
								</result>
			<result>
			<name>四平科技公园-2号门</name>
			<location>
				<lat>31.294676</lat>
				<lng>121.51257</lng>
			</location>
							<address>国泰路127号</address>
													<uid>637a5a54f81053259d9d68e4</uid>
								</result>
	  </results>
</PlaceSearchResponse>
