<?xml version="1.0" encoding="utf-8" ?> 
<PlaceSearchResponse> 
  <status>0</status>
  <message>ok</message>
  	<total>42</total>
    <results>
			<result>
			<name>金山海滩</name>
			<location>
				<lat>30.714582</lat>
				<lng>121.3544</lng>
			</location>
							<address>近郊金山区金山卫镇石化街道新城路5号金山城市沙滩南(近金涛路)</address>
										<telephone>(021)57936507</telephone>
										<uid>00f1c7fbd6ceee1cc056ac6f</uid>
								</result>
			<result>
			<name>城市沙滩(沪杭公路店)</name>
			<location>
				<lat>30.722072</lat>
				<lng>121.361303</lng>
			</location>
							<address>金山区石化沪杭公路戚家墩路7555号游客中心（城市沙滩）</address>
										<telephone>(021)57953918</telephone>
										<uid>4971e52c97da7aec9e82eaaa</uid>
								</result>
			<result>
			<name>城市沙滩停车场</name>
			<location>
				<lat>30.722111</lat>
				<lng>121.361364</lng>
			</location>
							<address>沪杭公路7385号附近</address>
													<uid>bcaebff898abb957c9e33cc8</uid>
								</result>
			<result>
			<name>城市沙滩停车场</name>
			<location>
				<lat>30.714318</lat>
				<lng>121.343532</lng>
			</location>
							<address>金山区金山区北随塘河路381号479号</address>
													<uid>22d7eb17de96e0a87bf79642</uid>
								</result>
			<result>
			<name>城市沙滩小吃走廊</name>
			<location>
				<lat>30.711827</lat>
				<lng>121.350449</lng>
			</location>
							<address>金山区金山区金山卫镇石化街道新城路5号金山城市沙滩南(近金涛路)</address>
													<uid>b0c7196158306f01eaf853d0</uid>
								</result>
			<result>
			<name>城市沙滩富川路入口</name>
			<location>
				<lat>30.717244</lat>
				<lng>121.357557</lng>
			</location>
							<address>上海市金山区</address>
													<uid>bf21b40e8175ab2cd22dd6a7</uid>
								</result>
			<result>
			<name>金山城市沙滩（新城路店）</name>
			<location>
				<lat>30.711827</lat>
				<lng>121.350449</lng>
			</location>
							<address>金山区新城路5号（近沪杭公路）</address>
										<telephone>(021)57953918</telephone>
										<uid>418f65fa78a9c36f80a00c0e</uid>
								</result>
			<result>
			<name>城市沙滩停车场（戚家墩）</name>
			<location>
				<lat>30.721734</lat>
				<lng>121.360483</lng>
			</location>
							<address>金山假日旅游一号线</address>
													<uid>65d743eea15d909c581093be</uid>
								</result>
			<result>
			<name>金山城市沙滩停车场</name>
			<location>
				<lat>30.715552</lat>
				<lng>121.354359</lng>
			</location>
							<address>金山区蒙山路30号</address>
													<uid>7203cf9c778c3b14c7f50d22</uid>
								</result>
			<result>
			<name>金山城市沙滩停车场</name>
			<location>
				<lat>30.71747</lat>
				<lng>121.357631</lng>
			</location>
							<address>上海市金山区</address>
													<uid>4ee276dc92cf74af9d95de49</uid>
								</result>
	  </results>
</PlaceSearchResponse>
