<?xml version="1.0" encoding="utf-8" ?> 
<PlaceSearchResponse> 
  <status>0</status>
  <message>ok</message>
  	<total>50</total>
    <results>
			<result>
			<name>复旦大学(江湾校区)</name>
			<location>
				<lat>31.342161</lat>
				<lng>121.51327</lng>
			</location>
							<address>杨浦区淞沪路2005号(近国帆路)</address>
										<telephone>(021)51630111</telephone>
										<uid>4e6c2fbe3ee051c66e20b99b</uid>
								</result>
			<result>
			<name>复旦大学江湾校区(西门)</name>
			<location>
				<lat>31.339362</lat>
				<lng>121.503736</lng>
			</location>
							<address>内环中环之间</address>
													<uid>c18fe3696ee1fff24151c0b6</uid>
								</result>
			<result>
			<name>复旦大学(江湾城新校区)</name>
			<location>
				<lat>31.340901</lat>
				<lng>121.516389</lng>
			</location>
							<address>168路;1201路</address>
													<uid>fb1587169949ba47eb56fa59</uid>
								</result>
			<result>
			<name>复旦大学江湾校区(东门)</name>
			<location>
				<lat>31.344536</lat>
				<lng>121.519194</lng>
			</location>
							<address>淞沪路2100号附近</address>
													<uid>882430e59a406a86441a328f</uid>
								</result>
			<result>
			<name>复旦大学(江湾新校区)-法学院</name>
			<location>
				<lat>31.344181</lat>
				<lng>121.516598</lng>
			</location>
							<address>国权北路1380弄</address>
										<telephone>(021)51630111</telephone>
										<uid>ca34cc92a98e578c94ec84bc</uid>
								</result>
			<result>
			<name>复旦大学江湾校区行政与会议中心</name>
			<location>
				<lat>31.342547</lat>
				<lng>121.512601</lng>
			</location>
							<address>国权北路1370号复旦大学江湾校区附近</address>
													<uid>1206ff580fa8f1053310afff</uid>
								</result>
			<result>
			<name>复旦大学(江湾校区)-教学楼</name>
			<location>
				<lat>31.341992</lat>
				<lng>121.511891</lng>
			</location>
							<address>上海市杨浦区</address>
													<uid>0dfcadf4a27cba610aa8d4d1</uid>
								</result>
			<result>
			<name>复旦大学(江湾校区)-南门</name>
			<location>
				<lat>31.337774</lat>
				<lng>121.512783</lng>
			</location>
							<address>杨浦区淞沪路2005号复旦大学江湾校区内（近国权北路）</address>
													<uid>a34f6c4e93f3223c22f01756</uid>
								</result>
			<result>
			<name>复旦大学(江湾新校区)-网球场</name>
			<location>
				<lat>31.338661</lat>
				<lng>121.508715</lng>
			</location>
							<address>淞沪路2005号复旦大学江湾新校区内</address>
										<telephone>(021)51630026</telephone>
										<uid>36ccb7ae04e0ea733586f465</uid>
								</result>
			<result>
			<name>复旦大学江湾新校区-食堂</name>
			<location>
				<lat>31.341467</lat>
				<lng>121.510657</lng>
			</location>
							<address>杨浦区淞沪路2005号复旦大学江湾校区内（三门路淞沪路）</address>
													<uid>522c6156ab6bc15a72455b11</uid>
								</result>
	  </results>
</PlaceSearchResponse>
