<?xml version="1.0" encoding="utf-8" ?> 
<PlaceSearchResponse> 
  <status>0</status>
  <message>ok</message>
  	<total>6</total>
    <results>
			<result>
			<name>复旦大学博物馆</name>
			<location>
				<lat>31.302329</lat>
				<lng>121.505985</lng>
			</location>
							<address>杨浦区邯郸路220号复旦大学内登辉环路200号楼文博系楼2楼(近国权路)</address>
										<telephone>(021)65643739</telephone>
										<uid>89fd4ea3d14c5f46e5e96527</uid>
								</result>
			<result>
			<name>复旦大学-蔡冠深人文馆</name>
			<location>
				<lat>31.302714</lat>
				<lng>121.505786</lng>
			</location>
							<address>杨浦区邯郸路220号复旦大学内登辉环路300号楼蔡冠深人文馆(近国权路)</address>
										<telephone>(021)65642170</telephone>
										<uid>44207646e8885415deee8b72</uid>
								</result>
			<result>
			<name>复旦大学-文物与博物馆学系</name>
			<location>
				<lat>31.302336</lat>
				<lng>121.506026</lng>
			</location>
							<address>邯郸路220号</address>
													<uid>884946923ee8eb96132935af</uid>
								</result>
			<result>
			<name>复旦大学-同公堂</name>
			<location>
				<lat>31.302329</lat>
				<lng>121.505576</lng>
			</location>
							<address>复旦大学博物馆附近</address>
													<uid>bea1e599d6da760885420e54</uid>
								</result>
			<result>
			<name>复旦大学-寒冰馆</name>
			<location>
				<lat>31.303378</lat>
				<lng>121.50669</lng>
			</location>
							<address>邯郸路220号复旦大学</address>
													<uid>447081284de8190d83a00ce1</uid>
								</result>
			<result>
			<name>复旦大学-景莱堂</name>
			<location>
				<lat>31.302722</lat>
				<lng>121.505567</lng>
			</location>
							<address>复旦大学博物馆附近</address>
													<uid>d6d52444f3d025346c476060</uid>
								</result>
	  </results>
</PlaceSearchResponse>
