<?xml version="1.0" encoding="utf-8" ?> 
<PlaceSearchResponse> 
  <status>0</status>
  <message>ok</message>
  	<total>20</total>
    <results>
			<result>
			<name>复旦大学</name>
			<location>
				<lat>31.304589</lat>
				<lng>121.509701</lng>
			</location>
							<address>上海市杨浦区邯郸路220号</address>
										<telephone>(021)65642222</telephone>
										<uid>0d0a3f78ac4698a249fd3f37</uid>
								</result>
			<result>
			<name>复旦大学-蔡冠深人文馆</name>
			<location>
				<lat>31.302714</lat>
				<lng>121.505786</lng>
			</location>
							<address>杨浦区邯郸路220号复旦大学内登辉环路300号楼蔡冠深人文馆(近国权路)</address>
										<telephone>(021)65642170</telephone>
										<uid>44207646e8885415deee8b72</uid>
								</result>
			<result>
			<name>复旦大学博物馆</name>
			<location>
				<lat>31.302329</lat>
				<lng>121.505985</lng>
			</location>
							<address>杨浦区邯郸路220号复旦大学内登辉环路200号楼文博系楼2楼(近国权路)</address>
										<telephone>(021)65643739</telephone>
										<uid>89fd4ea3d14c5f46e5e96527</uid>
								</result>
			<result>
			<name>复旦大学-同公堂</name>
			<location>
				<lat>31.302329</lat>
				<lng>121.505576</lng>
			</location>
							<address>复旦大学博物馆附近</address>
													<uid>bea1e599d6da760885420e54</uid>
								</result>
			<result>
			<name>复旦大学-寒冰馆</name>
			<location>
				<lat>31.303378</lat>
				<lng>121.50669</lng>
			</location>
							<address>邯郸路220号复旦大学</address>
													<uid>447081284de8190d83a00ce1</uid>
								</result>
			<result>
			<name>复旦大学-景莱堂</name>
			<location>
				<lat>31.302722</lat>
				<lng>121.505567</lng>
			</location>
							<address>复旦大学博物馆附近</address>
													<uid>d6d52444f3d025346c476060</uid>
								</result>
			<result>
			<name>复旦大学-国旗坪</name>
			<location>
				<lat>31.304064</lat>
				<lng>121.509843</lng>
			</location>
							<address>上海市杨浦区</address>
													<uid>f3b4e6571556644b2d473395</uid>
								</result>
			<result>
			<name>复旦大学-主席像</name>
			<location>
				<lat>31.3032</lat>
				<lng>121.510125</lng>
			</location>
							<address>邯郸路220号复旦大学</address>
													<uid>959d9963cbdbe69f4302453a</uid>
								</result>
			<result>
			<name>复旦大学上海视觉艺术学院视界艺术</name>
			<location>
				<lat>31.254762</lat>
				<lng>121.455688</lng>
			</location>
							<address>莫干山路50号m50创意园6号楼6-104</address>
													<uid>d6fc2828b1288e2af3193770</uid>
								</result>
			<result>
			<name>复旦中学旧址</name>
			<location>
				<lat>31.209603</lat>
				<lng>121.440694</lng>
			</location>
							<address>华山路1626</address>
													<uid>b76e17ffc6458b327ab55c71</uid>
								</result>
	  </results>
</PlaceSearchResponse>
