<?xml version="1.0" encoding="utf-8" ?> 
<PlaceSearchResponse> 
  <status>0</status>
  <message>ok</message>
  	<total>5</total>
    <results>
			<result>
			<name>夏天广场</name>
			<location>
				<lat>31.285164</lat>
				<lng>121.464629</lng>
			</location>
							<address>大宁路</address>
													<uid>6113ef770c21906a8f7727ad</uid>
								</result>
			<result>
			<name>夏天形象设计</name>
			<location>
				<lat>31.390238</lat>
				<lng>121.252237</lng>
			</location>
							<address>上海市嘉定区城中路138号ONLY(罗宾森广场上海罗宾森店)1层</address>
													<uid>80583cc12ab99916ac31e57b</uid>
								</result>
			<result>
			<name>公厕</name>
			<location>
				<lat>31.277125</lat>
				<lng>121.461694</lng>
			</location>
							<address>夏天广场附近</address>
													<uid>15ed53ce3f01582a9222e04e</uid>
								</result>
			<result>
			<name>夏日沫沫茶</name>
			<location>
				<lat>31.10666</lat>
				<lng>121.192318</lng>
			</location>
							<address>上海市松江区桃源路178号佘山天地休闲广场1层</address>
													<uid>cc3a2f1e45a64b8904026f0e</uid>
								</result>
			<result>
			<name>半岛游泳会所(半岛花园游泳会所澳门路店)</name>
			<location>
				<lat>31.251366</lat>
				<lng>121.444981</lng>
			</location>
							<address>上海市澳门路588号四楼（夏季室外池）</address>
										<telephone>(021)61553604,(021)62980884</telephone>
										<uid>6874b8ca51b8b4cd1ef74df9</uid>
								</result>
	  </results>
</PlaceSearchResponse>
