<?xml version="1.0" encoding="utf-8" ?> 
<PlaceSearchResponse> 
  <status>0</status>
  <message>ok</message>
  	<total>6</total>
    <results>
			<result>
			<name>外滩源壹号</name>
			<location>
				<lat>31.246319</lat>
				<lng>121.494611</lng>
			</location>
							<address>上海市黄浦区中山东一路33号英国领事馆及领事官邸旧址内</address>
										<telephone>(021)53089803</telephone>
										<uid>feb293e963159d3090114cdf</uid>
								</result>
			<result>
			<name>外滩源33</name>
			<location>
				<lat>31.248047</lat>
				<lng>121.495653</lng>
			</location>
							<address>上海市黄浦区中山东一路33号英国领事馆及领事官邸旧址内</address>
										<telephone>(021)63235687</telephone>
										<uid>be1ea5eff7319cc114948e5d</uid>
								</result>
			<result>
			<name>外滩源壹号-停车场</name>
			<location>
				<lat>31.247631</lat>
				<lng>121.495133</lng>
			</location>
							<address>上海市黄浦区中山东一路33号英国领事馆及领事官邸旧址内</address>
													<uid>60dc951a19c39d6a83a00c52</uid>
								</result>
			<result>
			<name>外滩源壹号金融家俱乐部</name>
			<location>
				<lat>31.247924</lat>
				<lng>121.495384</lng>
			</location>
							<address>上海市黄浦区中山东一路33号英国领事馆及领事官邸旧址内</address>
													<uid>471a522ea19ee2a48af15d3a</uid>
								</result>
			<result>
			<name>外滩源壹号</name>
			<location>
				<lat>31.24804</lat>
				<lng>121.495658</lng>
			</location>
							<address>黄浦区中山东一路33号（南苏州路口）</address>
													<uid>8590b33198b47d6da9f0cdba</uid>
								</result>
			<result>
			<name>外滩源33-东门</name>
			<location>
				<lat>31.247839</lat>
				<lng>121.496396</lng>
			</location>
							<address>中山东一路33号</address>
													<uid>dabda0ee9cb7e2247adbd29f</uid>
								</result>
	  </results>
</PlaceSearchResponse>
