<?xml version="1.0" encoding="utf-8" ?> 
<PlaceSearchResponse> 
  <status>0</status>
  <message>ok</message>
  	<total>5</total>
    <results>
			<result>
			<name>大千生态园</name>
			<location>
				<lat>31.136949</lat>
				<lng>121.05497</lng>
			</location>
							<address>上海市青浦区朱家角镇西洋淀村１号大千庄园生态世界内</address>
										<telephone>13918398922</telephone>
										<uid>cf0ec17f709ea8779d9d6846</uid>
								</result>
			<result>
			<name>大千生态庄园</name>
			<location>
				<lat>31.130295</lat>
				<lng>121.0468</lng>
			</location>
							<address>上海市青浦区朱家角西洋淀1号</address>
										<telephone>(021)59238800</telephone>
										<uid>82ab18169ae8333ed4851fab</uid>
								</result>
			<result>
			<name>大千生态庄园大千美食林</name>
			<location>
				<lat>31.08653</lat>
				<lng>121.059262</lng>
			</location>
							<address>朱枫公路1201号</address>
										<telephone>18821168966</telephone>
										<uid>564b5a939860f85dd2f49e56</uid>
								</result>
			<result>
			<name>大千生态庄园宴会厅</name>
			<location>
				<lat>31.137474</lat>
				<lng>121.055217</lng>
			</location>
							<address>青浦区朱家角西洋淀1号大千生态庄园内（近朱家角停车场）</address>
										<telephone>(021)52383691</telephone>
										<uid>d219bb1dd897d192f50e7744</uid>
								</result>
			<result>
			<name>上海大千美食林实业有限公司</name>
			<location>
				<lat>31.250023</lat>
				<lng>121.237917</lng>
			</location>
							<address>上海青浦区朱家角西洋淀1号大千庄园</address>
										<telephone>(021)59831177</telephone>
										<uid>088ec0dc00ac82847702690b</uid>
								</result>
	  </results>
</PlaceSearchResponse>
