<?xml version="1.0" encoding="utf-8" ?> 
<PlaceSearchResponse> 
  <status>0</status>
  <message>ok</message>
  	<total>32</total>
    <results>
			<result>
			<name>大公馆国际娱乐会所</name>
			<location>
				<lat>31.181393</lat>
				<lng>121.391836</lng>
			</location>
							<address>闵行区吴中路1171弄50支弄1号(近万源路)</address>
										<telephone>18616099753</telephone>
										<uid>caf1649f6fbb4c4c2fb90858</uid>
								</result>
			<result>
			<name>大公馆国际会所</name>
			<location>
				<lat>31.181347</lat>
				<lng>121.391652</lng>
			</location>
							<address>吴中路1171弄50支弄1号</address>
										<telephone>021-54252066</telephone>
										<uid>b7f0a03388c285d1b5147f33</uid>
								</result>
			<result>
			<name>西郊大公馆</name>
			<location>
				<lat>31.187896</lat>
				<lng>121.3015</lng>
			</location>
							<address>盈港东路333弄1～170号</address>
													<uid>a7c56ee0920704b2a2acc4b9</uid>
								</result>
			<result>
			<name>贝轩大公馆</name>
			<location>
				<lat>31.234555</lat>
				<lng>121.45696</lng>
			</location>
							<address>静安区南阳路170号(静安体育馆附近)</address>
										<telephone>(021)62897878</telephone>
										<uid>d6c5d9917db587f130169b15</uid>
								</result>
			<result>
			<name>华盛大公馆</name>
			<location>
				<lat>31.24097</lat>
				<lng>121.473775</lng>
			</location>
							<address>北京西路和成都北路交叉口</address>
													<uid>31f9101b1822d1b827e0a0ab</uid>
								</result>
			<result>
			<name>华盛大公馆</name>
			<location>
				<lat>31.240976</lat>
				<lng>121.473775</lng>
			</location>
							<address>北京西路和成都北路交叉口</address>
													<uid>357507a6e386326a2bb97cdc</uid>
								</result>
			<result>
			<name>大华梧桐墅-大公馆</name>
			<location>
				<lat>31.298804</lat>
				<lng>121.417515</lng>
			</location>
							<address>上海宝山真华路1958弄（近汶水路）</address>
													<uid>7ece79fbc01a9cfee5e96520</uid>
								</result>
			<result>
			<name>大公馆文化俱乐部</name>
			<location>
				<lat>31.221833</lat>
				<lng>121.462019</lng>
			</location>
							<address>东湖路7号东湖宾馆7号楼</address>
													<uid>2cc3c8e86ee861d74d2fdfc5</uid>
								</result>
			<result>
			<name>大公馆夜总会</name>
			<location>
				<lat>31.181393</lat>
				<lng>121.391836</lng>
			</location>
							<address>闵行区吴中路1171弄50支弄1号(近万源路)</address>
										<telephone>15221212223</telephone>
										<uid>3fe5916f89311705ddee8bcb</uid>
								</result>
			<result>
			<name>上海贝轩大公馆</name>
			<location>
				<lat>31.234308</lat>
				<lng>121.45721</lng>
			</location>
							<address>南阳路170号</address>
													<uid>d8dcfa69e3d47bfd2ce67b6f</uid>
								</result>
	  </results>
</PlaceSearchResponse>
