<?xml version="1.0" encoding="utf-8" ?> 
<PlaceSearchResponse> 
  <status>0</status>
  <message>ok</message>
  	<total>510</total>
    <results>
			<result>
			<name>上海大悦城</name>
			<location>
				<lat>31.248896</lat>
				<lng>121.478304</lng>
			</location>
							<address>上海市闸北区西藏北路166号</address>
										<telephone>(021)36338833</telephone>
										<uid>6113ef772705ff0d8f7727f2</uid>
								</result>
			<result>
			<name>大悦城美食</name>
			<location>
				<lat>31.269131</lat>
				<lng>121.472605</lng>
			</location>
							<address>上海闸北区西藏北路1288号</address>
													<uid>203454485cdee962a11de9f3</uid>
								</result>
			<result>
			<name>大悦城Lobby</name>
			<location>
				<lat>31.24858</lat>
				<lng>121.478391</lng>
			</location>
							<address>闸北区西藏北路166号大悦城6F-18</address>
										<telephone>(021)36398123</telephone>
										<uid>a84de2fef169172642d63ee9</uid>
								</result>
			<result>
			<name>避风塘大悦城</name>
			<location>
				<lat>31.256514</lat>
				<lng>121.495358</lng>
			</location>
							<address>吴淞路407弄32号</address>
													<uid>67c6e8be8ab195cd25e0a00a</uid>
								</result>
			<result>
			<name>大悦城-停车场</name>
			<location>
				<lat>31.24919</lat>
				<lng>121.478796</lng>
			</location>
							<address>上海市闸北区</address>
													<uid>f99a01e6b641e91ca2d230c4</uid>
								</result>
			<result>
			<name>小杨生煎(大悦城店)</name>
			<location>
				<lat>31.248896</lat>
				<lng>121.478304</lng>
			</location>
							<address>闸北区西藏北路166号大悦城9楼11号（近曲阜路）8层</address>
										<telephone>(021)62500920</telephone>
										<uid>a95f3ec7bbb5dc45f4231046</uid>
								</result>
			<result>
			<name>大悦城·果留仙</name>
			<location>
				<lat>31.248896</lat>
				<lng>121.478304</lng>
			</location>
							<address>闸北区西藏北路166号大悦城9楼11号（近曲阜路）</address>
										<telephone>(021)36398123</telephone>
										<uid>d8d1e4a2f25bf5b60869d927</uid>
								</result>
			<result>
			<name>Strip(大悦城店)</name>
			<location>
				<lat>31.249028</lat>
				<lng>121.478699</lng>
			</location>
							<address>闸北区西藏北路166号大悦城6楼617商铺(近曲阜路)</address>
										<telephone>(021)36397366</telephone>
										<uid>e85e2527c358ea4a94f08cb6</uid>
								</result>
			<result>
			<name>大悦城-南门</name>
			<location>
				<lat>31.248588</lat>
				<lng>121.478374</lng>
			</location>
							<address>上海市闸北区</address>
										<telephone>(021)36338833</telephone>
										<uid>ca3b7890850a44aee607381b</uid>
								</result>
			<result>
			<name>大悦城停车场</name>
			<location>
				<lat>31.24858</lat>
				<lng>121.478391</lng>
			</location>
							<address>闸北区西藏北路180号（近曲阜路）</address>
													<uid>3047425d97dc50e6c356ac5e</uid>
								</result>
	  </results>
</PlaceSearchResponse>
