<?xml version="1.0" encoding="utf-8" ?> 
<PlaceSearchResponse> 
  <status>0</status>
  <message>ok</message>
  	<total>7</total>
    <results>
			<result>
			<name>奉贤会议中心</name>
			<location>
				<lat>30.924402</lat>
				<lng>121.480724</lng>
			</location>
							<address>解放东路928</address>
										<telephone>(021)67180001</telephone>
										<uid>5c56edd67b443543a1d23017</uid>
								</result>
			<result>
			<name>上海小木屋会务中心</name>
			<location>
				<lat>30.871266</lat>
				<lng>121.739251</lng>
			</location>
							<address>奉贤区五四农场五四公路1255-1256号（上海农垦博物馆对面）</address>
										<telephone>(021)57161777</telephone>
										<uid>cac326e7fecec5bf28b97cba</uid>
								</result>
			<result>
			<name>小木屋会议中心</name>
			<location>
				<lat>30.871359</lat>
				<lng>121.739755</lng>
			</location>
							<address>奉贤区奉贤五四公路1255-1256号</address>
													<uid>5612a76116cdb067e856fa73</uid>
								</result>
			<result>
			<name>小木屋会议中心</name>
			<location>
				<lat>30.871359</lat>
				<lng>121.739755</lng>
			</location>
							<address>奉贤区奉贤五四公路1255-1256号</address>
													<uid>d9f6a76495c8d96d75e5b6c1</uid>
								</result>
			<result>
			<name>上海市公路管理处会务中心</name>
			<location>
				<lat>30.876481</lat>
				<lng>121.681071</lng>
			</location>
							<address>奉城镇</address>
													<uid>2c0bd6c5f3584dab43ab9adb</uid>
								</result>
			<result>
			<name>九歌屋Ktv</name>
			<location>
				<lat>30.872141</lat>
				<lng>121.73927</lng>
			</location>
							<address>奉贤区奉贤区五四公路1256号小木屋会议中心内</address>
										<telephone>(021)57161777</telephone>
										<uid>196090979d2d98df31f71d30</uid>
								</result>
			<result>
			<name>上海小木屋会务中心北欧风情芬兰木屋6栋</name>
			<location>
				<lat>30.871359</lat>
				<lng>121.739755</lng>
			</location>
							<address>奉贤区五四公路1255～1256号</address>
													<uid>ec2a4132c659c3b0c909f066</uid>
								</result>
	  </results>
</PlaceSearchResponse>
