<?xml version="1.0" encoding="utf-8" ?> 
<PlaceSearchResponse> 
  <status>0</status>
  <message>ok</message>
  	<total>9</total>
    <results>
			<result>
			<name>孙桥农业园区</name>
			<location>
				<lat>31.168833</lat>
				<lng>121.628756</lng>
			</location>
							<address>961路</address>
													<uid>c906fa856514af4a29201a08</uid>
								</result>
			<result>
			<name>浦东孙桥现代农业园区</name>
			<location>
				<lat>31.169243</lat>
				<lng>121.623067</lng>
			</location>
							<address>沔北路185</address>
										<telephone>(021)58572522</telephone>
										<uid>b140214859a8a0cceb1e9714</uid>
								</result>
			<result>
			<name>农家和记小菜孙桥农业园区店</name>
			<location>
				<lat>31.170031</lat>
				<lng>121.623303</lng>
			</location>
							<address>军民公路1383弄附近</address>
										<telephone>15201871522</telephone>
										<uid>b398f6305ba8a02df50e7748</uid>
								</result>
			<result>
			<name>上海农业科技种子有限公司</name>
			<location>
				<lat>31.171738</lat>
				<lng>121.641823</lng>
			</location>
							<address>上海市浦东新区孙桥镇沔北路185号C6(孙桥现代农业园区内)</address>
										<telephone>(021)58574111</telephone>
										<uid>15a8d069a83b05af71210b1f</uid>
								</result>
			<result>
			<name>上海康馨园林绿化有限公司</name>
			<location>
				<lat>31.171738</lat>
				<lng>121.641823</lng>
			</location>
							<address>上海浦东新区孙桥现代农业园区2区2号,3区55-58号</address>
										<telephone>13162680382</telephone>
										<uid>7b47d2403d48032cc27da2ac</uid>
								</result>
			<result>
			<name>上海德添农产品有限公司</name>
			<location>
				<lat>31.167999</lat>
				<lng>121.624529</lng>
			</location>
							<address>孙桥现代农业园区沔北路185号D9-2</address>
										<telephone>(021)60518519</telephone>
										<uid>876d236225f99f60a80dd847</uid>
								</result>
			<result>
			<name>上海好苗多树木配送中心</name>
			<location>
				<lat>31.171738</lat>
				<lng>121.641823</lng>
			</location>
							<address>上海浦东孙桥路805弄92栋(孙桥现代农业园区花木城内)</address>
										<telephone>(021)50203386</telephone>
										<uid>287aba7dba6fbfd8081cc791</uid>
								</result>
			<result>
			<name>上海凯华园林绿化工程有限公司</name>
			<location>
				<lat>31.171738</lat>
				<lng>121.641823</lng>
			</location>
							<address>上海市浦东新区孙桥勤政路716号孙桥现代农业园区</address>
										<telephone>13916786480,021-50813595</telephone>
										<uid>66847a0af55e2b1c3617dce0</uid>
								</result>
			<result>
			<name>和记小菜(孙桥店)</name>
			<location>
				<lat>31.169992</lat>
				<lng>121.623236</lng>
			</location>
							<address>浦东新区沔北路185号孙桥现代农业园区内</address>
										<telephone>(021)58577758</telephone>
										<uid>b1c556e846d40215b4265549</uid>
								</result>
	  </results>
</PlaceSearchResponse>
