<?xml version="1.0" encoding="utf-8" ?> 
<PlaceSearchResponse> 
  <status>0</status>
  <message>ok</message>
  	<total>29</total>
    <results>
			<result>
			<name>宜家家居</name>
			<location>
				<lat>31.184459</lat>
				<lng>121.441312</lng>
			</location>
							<address>上海市徐汇区漕溪路126号</address>
										<telephone>4008002345</telephone>
										<uid>2c0bd6c54509dbb343ab9a60</uid>
								</result>
			<result>
			<name>宜家家居(上海宝山商场)</name>
			<location>
				<lat>31.295795</lat>
				<lng>121.424216</lng>
			</location>
							<address>沪太路1818号(近汶水路）</address>
										<telephone>4008002345</telephone>
										<uid>4697dd7b2df8114bd42ce26a</uid>
								</result>
			<result>
			<name>宜家家居停车场(北蔡店)</name>
			<location>
				<lat>31.165914</lat>
				<lng>121.569459</lng>
			</location>
							<address>北蔡镇沪南路</address>
													<uid>1f9cf0400d91f80482a12e79</uid>
								</result>
			<result>
			<name>宜家家居北蔡商场</name>
			<location>
				<lat>31.166817</lat>
				<lng>121.568189</lng>
			</location>
							<address>临御路550号</address>
										<telephone>(021)20304532</telephone>
										<uid>d1fa447d47ba21ef0782c201</uid>
								</result>
			<result>
			<name>宜家家居(上海北蔡商场店)</name>
			<location>
				<lat>31.167914</lat>
				<lng>121.56908</lng>
			</location>
							<address>浦东新区北蔡镇临御路550号(中环沪南路口)</address>
										<telephone>4008002345</telephone>
										<uid>6a2eea0cdc0109966140a990</uid>
								</result>
			<result>
			<name>宜家家居徐汇商场餐厅</name>
			<location>
				<lat>31.184459</lat>
				<lng>121.44131</lng>
			</location>
							<address>徐汇区漕溪路126号宜家家居1楼(近中山西路)</address>
										<telephone>(021)54254532</telephone>
										<uid>81d6a509bb0c3f596e20b9c6</uid>
								</result>
			<result>
			<name>新宜家家具工坊</name>
			<location>
				<lat>31.200631</lat>
				<lng>121.472268</lng>
			</location>
							<address>零陵路74</address>
													<uid>63ea01f31ec62166fda77893</uid>
								</result>
			<result>
			<name>宜家墙纸</name>
			<location>
				<lat>31.169004</lat>
				<lng>121.524374</lng>
			</location>
							<address>板泉路2920号</address>
										<telephone>(021)51335752</telephone>
										<uid>6bcda5ebfef10d079a00502b</uid>
								</result>
			<result>
			<name>宜家家居-停车场</name>
			<location>
				<lat>31.183818</lat>
				<lng>121.438464</lng>
			</location>
							<address>漕溪路126号</address>
													<uid>ce22c613475847a959bbbcd5</uid>
								</result>
			<result>
			<name>宜家家居停车场</name>
			<location>
				<lat>31.294761</lat>
				<lng>121.422899</lng>
			</location>
							<address>上海市宝山区</address>
													<uid>1a63e734c9b1e4229fec2b2b</uid>
								</result>
	  </results>
</PlaceSearchResponse>
