<?xml version="1.0" encoding="utf-8" ?> 
<PlaceSearchResponse> 
  <status>0</status>
  <message>ok</message>
  	<total>96</total>
    <results>
			<result>
			<name>宝地广场</name>
			<location>
				<lat>31.267264</lat>
				<lng>121.517707</lng>
			</location>
							<address>唐山路1018号(唐山路与荆州路交汇处)</address>
										<telephone>021-55620588</telephone>
										<uid>ea4a3dc968ab99504e554744</uid>
								</result>
			<result>
			<name>宝地广场D座</name>
			<location>
				<lat>31.266886</lat>
				<lng>121.518625</lng>
			</location>
							<address>上海市杨浦区大连路588号</address>
													<uid>89b0f85bd9b525e6eb12e4ff</uid>
								</result>
			<result>
			<name>宝地广场B座</name>
			<location>
				<lat>31.266322</lat>
				<lng>121.518356</lng>
			</location>
							<address>上海市杨浦区唐山路1019号</address>
										<telephone>(021)55620588</telephone>
										<uid>8c2c739ab0493e1930169bfc</uid>
								</result>
			<result>
			<name>宝地广场C座</name>
			<location>
				<lat>31.267032</lat>
				<lng>121.518455</lng>
			</location>
							<address>上海市杨浦区昆明路555号</address>
													<uid>8bd1530446917e5ecc06a4f9</uid>
								</result>
			<result>
			<name>宝地广场A座</name>
			<location>
				<lat>31.267264</lat>
				<lng>121.517707</lng>
			</location>
							<address>上海市杨浦区唐山路1018号</address>
										<telephone>(021)55620588</telephone>
										<uid>630911537feab157100daacb</uid>
								</result>
			<result>
			<name>麦当劳(宝地广场店)</name>
			<location>
				<lat>31.267132</lat>
				<lng>121.519383</lng>
			</location>
							<address>宝地广场昆明路555号</address>
										<telephone>4008517517</telephone>
										<uid>b6f733c5ef79ae8a2d473390</uid>
								</result>
			<result>
			<name>宝地广场车库</name>
			<location>
				<lat>31.267773</lat>
				<lng>121.517739</lng>
			</location>
							<address>唐山路1018号</address>
													<uid>5aa8d182fd620f2c744ff190</uid>
								</result>
			<result>
			<name>宝地广场-停车场</name>
			<location>
				<lat>31.267773</lat>
				<lng>121.517736</lng>
			</location>
							<address>唐山路1018号</address>
													<uid>d16362f230725a91ad31e558</uid>
								</result>
			<result>
			<name>宝地广场-停车场</name>
			<location>
				<lat>31.26599</lat>
				<lng>121.518094</lng>
			</location>
							<address>杨浦区大连路588号(近昆明路)</address>
													<uid>54c10124f192b815373a7120</uid>
								</result>
			<result>
			<name>厚味香辣馆(宝地广场店)</name>
			<location>
				<lat>31.267032</lat>
				<lng>121.518455</lng>
			</location>
							<address>上海杨浦区杨浦区大连路588号宝地广场C座2楼</address>
										<telephone>(021)64282777</telephone>
										<uid>bf6dedfd28eed191c72ba18b</uid>
								</result>
	  </results>
</PlaceSearchResponse>
