<?xml version="1.0" encoding="utf-8" ?> 
<PlaceSearchResponse> 
  <status>0</status>
  <message>ok</message>
  	<total>980</total>
    <results>
			<result>
			<name>罗店镇</name>
			<location>
				<lat>31.401366</lat>
				<lng>121.362234</lng>
			</location>
							<address>上海市宝山区</address>
													<uid>5b6f32e8caf68cb2ebe58209</uid>
								</result>
			<result>
			<name>罗店购物中心</name>
			<location>
				<lat>31.418771</lat>
				<lng>121.35007</lng>
			</location>
							<address>上海市宝山区塘西街39-5号</address>
										<telephone>(021)56860445</telephone>
										<uid>3dc9befdb2f1b317bea2407d</uid>
								</result>
			<result>
			<name>上海市宝山区罗店中心校</name>
			<location>
				<lat>31.422669</lat>
				<lng>121.355881</lng>
			</location>
							<address>宝山区罗店镇罗新路765号</address>
										<telephone>021-36405638</telephone>
										<uid>d7fd2ad3b7acc8550bccdd71</uid>
								</result>
			<result>
			<name>罗店医院</name>
			<location>
				<lat>31.418886</lat>
				<lng>121.355335</lng>
			</location>
							<address>宝山区罗溪路121号(罗溪路市一路)</address>
										<telephone>(021)56861995</telephone>
										<uid>fa01e93714a00e53764ff1a6</uid>
								</result>
			<result>
			<name>罗店派出所</name>
			<location>
				<lat>31.414395</lat>
				<lng>121.350341</lng>
			</location>
							<address>罗太路232号</address>
										<telephone>(021)66860999</telephone>
										<uid>8cba4bb058ba5985ad04577d</uid>
								</result>
			<result>
			<name>罗店中学</name>
			<location>
				<lat>31.431273</lat>
				<lng>121.354768</lng>
			</location>
							<address>宝山区罗店镇罗新路707号(集贤路罗新路)</address>
										<telephone>(021)56860611,(021)56863091,(021)66861755</telephone>
										<uid>79e06d77a4850100d8d8911a</uid>
								</result>
			<result>
			<name>罗店汽车站</name>
			<location>
				<lat>31.416521</lat>
				<lng>121.346668</lng>
			</location>
							<address>上海市宝山区</address>
													<uid>e83527c0a4d2ccba8c1a898c</uid>
								</result>
			<result>
			<name>罗店古镇</name>
			<location>
				<lat>31.417199</lat>
				<lng>121.346835</lng>
			</location>
							<address>上海市宝山区</address>
													<uid>ad764541c18ee23f734b87b8</uid>
								</result>
			<result>
			<name>罗店耶稣堂</name>
			<location>
				<lat>31.420049</lat>
				<lng>121.34301</lng>
			</location>
							<address>宝山区罗店镇西界泾村63号(近罗溪村)</address>
													<uid>6113ef775b60bb158e772771</uid>
								</result>
			<result>
			<name>上海市宝山区罗店织带厂</name>
			<location>
				<lat>31.426143</lat>
				<lng>121.365757</lng>
			</location>
							<address>苗圃路800号</address>
													<uid>d0b8923fc348579cb5f42f57</uid>
								</result>
	  </results>
</PlaceSearchResponse>
