<?xml version="1.0" encoding="utf-8" ?> 
<PlaceSearchResponse> 
  <status>0</status>
  <message>ok</message>
  	<total>5</total>
    <results>
			<result>
			<name>宝宸体育馆羽毛球场</name>
			<location>
				<lat>31.402475</lat>
				<lng>121.497092</lng>
			</location>
							<address>宝山区永清路700号（近永乐路）</address>
										<telephone>(021)56120254</telephone>
										<uid>06d2dffd906dc1ef89f15d88</uid>
								</result>
			<result>
			<name>跨玮体育(宝宸体育馆店)</name>
			<location>
				<lat>31.40162</lat>
				<lng>121.497509</lng>
			</location>
							<address>永清路700号宝山体育中心北翼生活馆</address>
										<telephone>(021)51952117</telephone>
										<uid>261ab2e88432572c5e0d0291</uid>
								</result>
			<result>
			<name>宝山体育中心游泳馆</name>
			<location>
				<lat>31.401412</lat>
				<lng>121.497657</lng>
			</location>
							<address>宝山区永清路700号宝宸体育馆(近海江路)</address>
										<telephone>(021)31164596,(021)31165558</telephone>
										<uid>c5d4244dcda5bf1c5bf6be8e</uid>
								</result>
			<result>
			<name>宝山体育中心游泳馆</name>
			<location>
				<lat>31.400942</lat>
				<lng>121.49771</lng>
			</location>
							<address>宝山区永清路700号宝宸体育馆（近海江路）</address>
										<telephone>(021)31165558</telephone>
										<uid>1dfe8092357032f34054d71a</uid>
								</result>
			<result>
			<name>迪卡侬(宝宸体育馆店)</name>
			<location>
				<lat>31.400888</lat>
				<lng>121.498416</lng>
			</location>
							<address>永清路700号宝山体育中心生活馆1楼东侧</address>
										<telephone>(021)66598559</telephone>
										<uid>c8648a21364160c3b2077d22</uid>
								</result>
	  </results>
</PlaceSearchResponse>
