<?xml version="1.0" encoding="utf-8" ?> 
<PlaceSearchResponse> 
  <status>0</status>
  <message>ok</message>
  	<total>31</total>
    <results>
			<result>
			<name>石库门屋里厢</name>
			<location>
				<lat>31.225871</lat>
				<lng>121.48133</lng>
			</location>
							<address>卢湾区太仓路181弄新天地北里25号(近马当路)</address>
										<telephone>(021)33070337</telephone>
										<uid>34059f973b57dd2971455b09</uid>
								</result>
			<result>
			<name>屋里厢</name>
			<location>
				<lat>31.183247</lat>
				<lng>121.434627</lng>
			</location>
							<address>黄浦区钦州路777号（近华石路）</address>
													<uid>0dc3d82ddd6d427575e5b6c2</uid>
								</result>
			<result>
			<name>屋里厢</name>
			<location>
				<lat>31.057223</lat>
				<lng>121.752496</lng>
			</location>
							<address>浦东新区惠南镇通济路316号（拱极路通济路）</address>
										<telephone>(021)68031917</telephone>
										<uid>c8e8f63300238875aa0dd8b3</uid>
								</result>
			<result>
			<name>屋里厢</name>
			<location>
				<lat>31.157269</lat>
				<lng>121.361878</lng>
			</location>
							<address>闵行区七宝镇南大街4号</address>
													<uid>ea7cf5429900d202a8f7292a</uid>
								</result>
			<result>
			<name>屋里厢</name>
			<location>
				<lat>31.154743</lat>
				<lng>121.114471</lng>
			</location>
							<address>上海市青浦区海盈路303号</address>
										<telephone>(021)59852310</telephone>
										<uid>025358fa0048891bc036443a</uid>
								</result>
			<result>
			<name>屋里厢</name>
			<location>
				<lat>31.154743</lat>
				<lng>121.114472</lng>
			</location>
							<address>海盈路303号</address>
										<telephone>(021)59852310</telephone>
										<uid>ba58bb0ecb515ec03913fd54</uid>
								</result>
			<result>
			<name>屋里厢茶馆</name>
			<location>
				<lat>31.225956</lat>
				<lng>121.48154</lng>
			</location>
							<address>太仓路181弄新天地北里25号楼2楼（近马当路兴业路一大会址旁）</address>
													<uid>4eb3b5332137056c4302457e</uid>
								</result>
			<result>
			<name>屋里厢农家小菜</name>
			<location>
				<lat>31.218652</lat>
				<lng>121.485806</lng>
			</location>
							<address>上海卢湾区顺昌路500号(近建国东路路口)</address>
													<uid>79cceb3683e322901e5800db</uid>
								</result>
			<result>
			<name>屋里厢便当</name>
			<location>
				<lat>31.169822</lat>
				<lng>121.405991</lng>
			</location>
							<address>上海市徐汇区古美路1528号1楼</address>
										<telephone>(021)54277012</telephone>
										<uid>e2d894486e28005e31f71dcd</uid>
								</result>
			<result>
			<name>屋里厢小菜</name>
			<location>
				<lat>31.265489</lat>
				<lng>121.529777</lng>
			</location>
							<address>杨浦区许昌路676号（近惠民路）</address>
										<telephone>(021)65890431</telephone>
										<uid>680fb70391e514858bb9886e</uid>
								</result>
	  </results>
</PlaceSearchResponse>
