<?xml version="1.0" encoding="utf-8" ?> 
<PlaceSearchResponse> 
  <status>0</status>
  <message>ok</message>
  	<total>9</total>
    <results>
			<result>
			<name>山阳田园</name>
			<location>
				<lat>30.794116</lat>
				<lng>121.356432</lng>
			</location>
							<address>上海市金山区</address>
													<uid>fef4cad754d7e8d9f723108c</uid>
								</result>
			<result>
			<name>山阳田园会所</name>
			<location>
				<lat>30.794116</lat>
				<lng>121.356432</lng>
			</location>
							<address>上海近郊金山区山阳镇亭卫公路2833弄555号(A4高速路口)</address>
										<telephone>021-57247222</telephone>
										<uid>88d593d44ac5cb7125e0a013</uid>
								</result>
			<result>
			<name>山阳田园景观餐厅</name>
			<location>
				<lat>30.792456</lat>
				<lng>121.353921</lng>
			</location>
							<address>山阳镇亭卫公路2833弄555号</address>
										<telephone>(021)57247222</telephone>
										<uid>91c13f9311ca218420f01783</uid>
								</result>
			<result>
			<name>山阳田园 水上餐厅</name>
			<location>
				<lat>30.794023</lat>
				<lng>121.356225</lng>
			</location>
							<address>上海近郊山阳镇亭卫公路2833弄555号(高速路口)</address>
										<telephone>(021)37212666</telephone>
										<uid>b32de3253ec692ebc5effbd7</uid>
								</result>
			<result>
			<name>山阳田园 田园风光餐厅</name>
			<location>
				<lat>30.794023</lat>
				<lng>121.356225</lng>
			</location>
							<address>上海近郊山阳镇亭卫公路2833弄555号(高速路口)</address>
										<telephone>(021)37212666</telephone>
										<uid>8b87b886825444e15e17c388</uid>
								</result>
			<result>
			<name>山阳田园 商务宴会餐厅</name>
			<location>
				<lat>30.794023</lat>
				<lng>121.356225</lng>
			</location>
							<address>上海近郊山阳镇亭卫公路2833弄555号(高速路口)</address>
										<telephone>(021)37212666</telephone>
										<uid>3cc548ded445ac983c9a5e26</uid>
								</result>
			<result>
			<name>上海山阳田园国际度假村</name>
			<location>
				<lat>30.794023</lat>
				<lng>121.356225</lng>
			</location>
							<address>上海上海市金山区山阳镇亭卫公路2833弄555号</address>
													<uid>cfcb04ebdcb75865b04c4973</uid>
								</result>
			<result>
			<name>山阳田园奶油草莓基地</name>
			<location>
				<lat>30.760094</lat>
				<lng>121.381439</lng>
			</location>
							<address>金山区山阳镇浦卫公路朱山路口（龙泉港大桥东侧田头超市）</address>
										<telephone>18817509029</telephone>
										<uid>29b6694f1e2f4872b2077d04</uid>
								</result>
			<result>
			<name>上海品园农家乐专业合作社</name>
			<location>
				<lat>30.798109</lat>
				<lng>121.362647</lng>
			</location>
							<address>金山区山阳镇华新村工农5组4025号(亭卫公路高速出口对面山阳田园农庄路口)</address>
										<telephone>13761021505</telephone>
										<uid>b6eb49583d9c56c2cbc3dbad</uid>
								</result>
	  </results>
</PlaceSearchResponse>
