<?xml version="1.0" encoding="utf-8" ?> 
<PlaceSearchResponse> 
  <status>0</status>
  <message>ok</message>
  	<total>13</total>
    <results>
			<result>
			<name>南门港码头</name>
			<location>
				<lat>31.623225</lat>
				<lng>121.400244</lng>
			</location>
							<address>南门支路25号</address>
													<uid>a74481d6c893f03bf503b806</uid>
								</result>
			<result>
			<name>南门码头</name>
			<location>
				<lat>31.622272</lat>
				<lng>121.40683</lng>
			</location>
							<address>崇明县崇明县南门路93号(崇明南门路崇明西门路)</address>
													<uid>fdf1611a685ec7474302454d</uid>
								</result>
			<result>
			<name>南门码头</name>
			<location>
				<lat>31.623217</lat>
				<lng>121.400247</lng>
			</location>
							<address>崇明县南门路93号（崇明南门路崇明西门路）</address>
													<uid>f3093867553be909b34c4975</uid>
								</result>
			<result>
			<name>一米单车（南门码头分店）</name>
			<location>
				<lat>31.622741</lat>
				<lng>121.40192</lng>
			</location>
							<address>崇明县八一路2号（近南门码头）</address>
										<telephone>(021)59675785</telephone>
										<uid>b1f36ea7e0fd82add8d8918a</uid>
								</result>
			<result>
			<name>一米单车（南门码头分店）</name>
			<location>
				<lat>31.622741</lat>
				<lng>121.40192</lng>
			</location>
							<address>崇明县八一路2号（近南门码头）</address>
										<telephone>(021)59675785</telephone>
										<uid>9e620c62c1423f5e8e772791</uid>
								</result>
			<result>
			<name>南门港车渡</name>
			<location>
				<lat>31.624439</lat>
				<lng>121.398388</lng>
			</location>
							<address>崇明西门路</address>
													<uid>b533ea4ad518a4424f6d46cc</uid>
								</result>
			<result>
			<name>崇明澳门豆捞</name>
			<location>
				<lat>31.62447</lat>
				<lng>121.402499</lng>
			</location>
							<address>崇明县崇明县南门路45号(近南门码头)</address>
										<telephone>(021)69692188</telephone>
										<uid>61085211295483b8c41b75ae</uid>
								</result>
			<result>
			<name>青岛啤酒扎啤城</name>
			<location>
				<lat>31.623248</lat>
				<lng>121.401999</lng>
			</location>
							<address>上海宝山区城桥镇八一路18号(近南门码头)</address>
										<telephone>(021)69601878</telephone>
										<uid>ed3ff29201365af9deee8ba8</uid>
								</result>
			<result>
			<name>学尔森崇明分校</name>
			<location>
				<lat>31.624424</lat>
				<lng>121.402252</lng>
			</location>
							<address>崇明县城桥镇八一路84号（近南门码头）</address>
										<telephone>021-33800141</telephone>
										<uid>fb5c3c24e56d53fdad080ff8</uid>
								</result>
			<result>
			<name>宝瀛糕点</name>
			<location>
				<lat>31.623563</lat>
				<lng>121.402702</lng>
			</location>
							<address>崇明县崇明县陈桥镇崇安路5号(近南门码头)</address>
										<telephone>(021)69691500</telephone>
										<uid>38e48037ffbcc950363a71ae</uid>
								</result>
	  </results>
</PlaceSearchResponse>
