<?xml version="1.0" encoding="utf-8" ?> 
<PlaceSearchResponse> 
  <status>0</status>
  <message>ok</message>
  	<total>6</total>
    <results>
			<result>
			<name>崧泽广场</name>
			<location>
				<lat>31.15798</lat>
				<lng>121.141779</lng>
			</location>
							<address>上海市浦东区公园东路</address>
													<uid>53cebd50dbce6d602b02e1be</uid>
								</result>
			<result>
			<name>崧泽广场-东南门</name>
			<location>
				<lat>31.156419</lat>
				<lng>121.141802</lng>
			</location>
							<address>公园东路</address>
													<uid>8719092c4592444402294fd5</uid>
								</result>
			<result>
			<name>崧泽财富生活广场</name>
			<location>
				<lat>31.154295</lat>
				<lng>121.153119</lng>
			</location>
							<address>上海市青浦区</address>
													<uid>73cdd457d64e50074151c0a8</uid>
								</result>
			<result>
			<name>青浦区崧泽广场管理办公室</name>
			<location>
				<lat>31.157825</lat>
				<lng>121.14266</lng>
			</location>
							<address>上海市青浦区</address>
													<uid>14030b76442f1153c9c3dbfe</uid>
								</result>
			<result>
			<name>龙联台球</name>
			<location>
				<lat>31.199866</lat>
				<lng>121.301997</lng>
			</location>
							<address>崧泽大道568号3楼</address>
													<uid>936a5079630534fabea822cf</uid>
								</result>
			<result>
			<name>吖吖游泳馆</name>
			<location>
				<lat>31.157988</lat>
				<lng>121.20508</lng>
			</location>
							<address>青浦区赵巷镇赵华路455号(崧泽公寓小区门口)</address>
										<telephone>(021)69756124</telephone>
										<uid>c822227a4bfce6126140a9df</uid>
								</result>
	  </results>
</PlaceSearchResponse>
