<?xml version="1.0" encoding="utf-8" ?> 
<PlaceSearchResponse> 
  <status>0</status>
  <message>ok</message>
  	<total>690</total>
    <results>
			<result>
			<name>川沙广场</name>
			<location>
				<lat>31.20009</lat>
				<lng>121.703535</lng>
			</location>
							<address>川沙镇</address>
													<uid>25ec69fcca16a964c26c1433</uid>
								</result>
			<result>
			<name>川沙商业广场</name>
			<location>
				<lat>31.186846</lat>
				<lng>121.6998</lng>
			</location>
							<address>上海市浦东新区妙境路1136弄2号</address>
													<uid>c165340574df9a07ab175a56</uid>
								</result>
			<result>
			<name>川沙金汇广场</name>
			<location>
				<lat>31.206573</lat>
				<lng>121.70282</lng>
			</location>
							<address>川三线;高川专线</address>
													<uid>1cbde97d2ff680ce1811d513</uid>
								</result>
			<result>
			<name>川沙现代广场（浦东商场现代店）</name>
			<location>
				<lat>31.201503</lat>
				<lng>121.704178</lng>
			</location>
							<address>浦东新区川沙路4825号现代广场内（近新源路）</address>
										<telephone>(021)68397911</telephone>
										<uid>7b5c32d86fd4a1a15bf6be19</uid>
								</result>
			<result>
			<name>华夏东路川沙路(川沙金汇广场)</name>
			<location>
				<lat>31.205942</lat>
				<lng>121.702071</lng>
			</location>
							<address>632路;新川专线</address>
													<uid>c60bcf87561871d579dbd273</uid>
								</result>
			<result>
			<name>华夏东路川沙路（金汇广场）</name>
			<location>
				<lat>31.205874</lat>
				<lng>121.700024</lng>
			</location>
							<address>沪川线;浦东3路</address>
													<uid>fae3e7f9d87cfcef8f55ec2d</uid>
								</result>
			<result>
			<name>如家快捷酒店(上海浦东机场川沙路金汇广场店)</name>
			<location>
				<lat>31.207511</lat>
				<lng>121.702118</lng>
			</location>
							<address>浦东新区川沙路4518号（与华夏东路交汇处）</address>
										<telephone>(021)51172000</telephone>
										<uid>c07dc3c62e59c5a4601809d9</uid>
								</result>
			<result>
			<name>川沙现代广场校区</name>
			<location>
				<lat>31.202206</lat>
				<lng>121.705175</lng>
			</location>
							<address>上海,川沙现代广场西市街188号3楼（近川沙路）（2号线川沙路站1号口出</address>
										<telephone>4008757770</telephone>
										<uid>638e3f88f89e62d2f503b8b5</uid>
								</result>
			<result>
			<name>上海川沙欣欣商场</name>
			<location>
				<lat>31.222675</lat>
				<lng>121.735751</lng>
			</location>
							<address>东川公路3号</address>
													<uid>c1276988de6c9b953686f407</uid>
								</result>
			<result>
			<name>浦东新区川沙新镇望三村文化广场</name>
			<location>
				<lat>31.158899</lat>
				<lng>121.771852</lng>
			</location>
							<address>水闸南路附近</address>
													<uid>e59649a26d8fe2408b2fb579</uid>
								</result>
	  </results>
</PlaceSearchResponse>
