<?xml version="1.0" encoding="utf-8" ?> 
<PlaceSearchResponse> 
  <status>0</status>
  <message>ok</message>
  	<total>5</total>
    <results>
			<result>
			<name>川沙古城墙公园</name>
			<location>
				<lat>31.200546</lat>
				<lng>121.713369</lng>
			</location>
							<address>新川路171号川沙古城墙公园</address>
										<telephone>(021)58982785</telephone>
										<uid>c2e03d567b2458d4843304e2</uid>
								</result>
			<result>
			<name>川沙古城墙公园-北门</name>
			<location>
				<lat>31.201202</lat>
				<lng>121.713489</lng>
			</location>
							<address>新川路东城壕路路口附近</address>
													<uid>abac3f5c4115ea1432870a59</uid>
								</result>
			<result>
			<name>敬业堂</name>
			<location>
				<lat>31.200638</lat>
				<lng>121.713249</lng>
			</location>
							<address>新川路171号川沙古城墙公园</address>
													<uid>65ba952c0a645136f5b91677</uid>
								</result>
			<result>
			<name>魁星阁</name>
			<location>
				<lat>31.200399</lat>
				<lng>121.71345</lng>
			</location>
							<address>新川路171号川沙古城墙公园</address>
													<uid>dc0d8e0a526fe4a15a3ac8c0</uid>
								</result>
			<result>
			<name>岳碑亭</name>
			<location>
				<lat>31.200916</lat>
				<lng>121.713339</lng>
			</location>
							<address>新川路171号川沙古城墙公园</address>
													<uid>0442b007983f03e408f5ebe9</uid>
								</result>
	  </results>
</PlaceSearchResponse>
