<?xml version="1.0" encoding="utf-8" ?> 
<PlaceSearchResponse> 
  <status>0</status>
  <message>ok</message>
  	<total>99</total>
    <results>
			<result>
			<name>武康路洋房</name>
			<location>
				<lat>31.212761</lat>
				<lng>121.445926</lng>
			</location>
							<address>徐汇区湖南武康路洋房</address>
													<uid>caae4f80884ca61a9d82eaf6</uid>
								</result>
			<result>
			<name>常熟路洋房</name>
			<location>
				<lat>31.223145</lat>
				<lng>121.454128</lng>
			</location>
							<address>常熟路100号</address>
													<uid>796a8c1030e7ece8734b87b1</uid>
								</result>
			<result>
			<name>五原路洋房</name>
			<location>
				<lat>31.219664</lat>
				<lng>121.454234</lng>
			</location>
							<address>五原路乌鲁木齐中路</address>
													<uid>d3d261afa9632c314251c04f</uid>
								</result>
			<result>
			<name>安福路洋房</name>
			<location>
				<lat>31.220366</lat>
				<lng>121.450459</lng>
			</location>
							<address>安福路191弄</address>
													<uid>7df62e9b22b0dd1d2fe67bf8</uid>
								</result>
			<result>
			<name>汾阳路108号老洋房</name>
			<location>
				<lat>31.216815</lat>
				<lng>121.460277</lng>
			</location>
							<address>汾阳路108号</address>
													<uid>04ff61175fbbcdf430621212</uid>
								</result>
			<result>
			<name>镇宁路洋房</name>
			<location>
				<lat>31.227538</lat>
				<lng>121.442643</lng>
			</location>
							<address>镇宁路360号</address>
													<uid>942a89bcb07528d128201a45</uid>
								</result>
			<result>
			<name>高邮路洋房</name>
			<location>
				<lat>31.216737</lat>
				<lng>121.445291</lng>
			</location>
							<address>高邮路/复兴西路</address>
													<uid>f1f6878f85434eac2b11d1eb</uid>
								</result>
			<result>
			<name>湖南路洋房</name>
			<location>
				<lat>31.214676</lat>
				<lng>121.446035</lng>
			</location>
							<address>湖南路265号</address>
													<uid>3a5c85a4ecd5dbe53913fd0b</uid>
								</result>
			<result>
			<name>泰安路洋房</name>
			<location>
				<lat>31.211904</lat>
				<lng>121.441633</lng>
			</location>
							<address>徐汇区泰安路120号</address>
													<uid>70241bfb81673e5581a12eee</uid>
								</result>
			<result>
			<name>广元路洋房</name>
			<location>
				<lat>31.206298</lat>
				<lng>121.449081</lng>
			</location>
							<address>淮海中路宛平路</address>
													<uid>c55fec1a2f9178d1b6f42f70</uid>
								</result>
	  </results>
</PlaceSearchResponse>
