<?xml version="1.0" encoding="utf-8" ?> 
<PlaceSearchResponse> 
  <status>0</status>
  <message>ok</message>
  	<total>1016</total>
    <results>
			<result>
			<name>广东路</name>
			<location>
				<lat>31.236323</lat>
				<lng>121.483834</lng>
			</location>
							<address>上海市黄浦区</address>
													<uid>19f43317cc428d06b72655bd</uid>
								</result>
			<result>
			<name>广东路/靖远街(路口)</name>
			<location>
				<lat>31.238229</lat>
				<lng>121.490135</lng>
			</location>
							<address>上海市黄浦区</address>
													<uid>c61bd305928dac69c27da212</uid>
								</result>
			<result>
			<name>云南中路/广东路(路口)</name>
			<location>
				<lat>31.236755</lat>
				<lng>121.484827</lng>
			</location>
							<address>上海市黄浦区</address>
													<uid>d4034eb3f2f257f7c0364422</uid>
								</result>
			<result>
			<name>广西北路/广东路(路口)</name>
			<location>
				<lat>31.23701</lat>
				<lng>121.485547</lng>
			</location>
							<address>上海市黄浦区</address>
													<uid>d6df91c13d15676bf7b9161e</uid>
								</result>
			<result>
			<name>四川中路/广东路(路口)</name>
			<location>
				<lat>31.239573</lat>
				<lng>121.49597</lng>
			</location>
							<address>上海市黄浦区</address>
													<uid>cde9e2c7202538b5e81e9723</uid>
								</result>
			<result>
			<name>广东路/西藏中路(路口)</name>
			<location>
				<lat>31.236331</lat>
				<lng>121.483834</lng>
			</location>
							<address>上海市黄浦区</address>
													<uid>e2c734e4df30632014a190a4</uid>
								</result>
			<result>
			<name>海通证券股份有限公司(广东路)</name>
			<location>
				<lat>31.236717</lat>
				<lng>121.485431</lng>
			</location>
							<address>广东路689号海通证券大厦4,7,8,10-15,19层</address>
													<uid>d33cd631e6f97e5452e5c5b1</uid>
								</result>
			<result>
			<name>广东路414号</name>
			<location>
				<lat>31.239086</lat>
				<lng>121.489999</lng>
			</location>
							<address>山东中路117弄附近</address>
													<uid>894b26a41ca48a97ad31e5f1</uid>
								</result>
			<result>
			<name>广东路380号</name>
			<location>
				<lat>31.238708</lat>
				<lng>121.490862</lng>
			</location>
							<address>广东路380弄附近</address>
													<uid>0f149ba209f6b546be4842ba</uid>
								</result>
			<result>
			<name>丰收日（广东路店）</name>
			<location>
				<lat>31.238206</lat>
				<lng>121.48847</lng>
			</location>
							<address>黄浦区广东路500号世贸大厦1楼（近南京东路）</address>
										<telephone>(021)63621176</telephone>
										<uid>0f1ba3d0686d63d49ff779c9</uid>
								</result>
	  </results>
</PlaceSearchResponse>
