<?xml version="1.0" encoding="utf-8" ?> 
<PlaceSearchResponse> 
  <status>0</status>
  <message>ok</message>
  	<total>349</total>
    <results>
			<result>
			<name>庄行镇</name>
			<location>
				<lat>30.907238</lat>
				<lng>121.404164</lng>
			</location>
							<address>上海市奉贤区</address>
													<uid>89aec4b43220a94beaf85350</uid>
								</result>
			<result>
			<name>庄行镇</name>
			<location>
				<lat>30.909196</lat>
				<lng>121.405435</lng>
			</location>
							<address>庄行2线</address>
													<uid>c062067ed1955d284354d7a3</uid>
								</result>
			<result>
			<name>庄行镇政府</name>
			<location>
				<lat>30.907238</lat>
				<lng>121.404164</lng>
			</location>
							<address>庄良路80</address>
										<telephone>(021)57466101</telephone>
										<uid>14076deeeb9129f502294f0b</uid>
								</result>
			<result>
			<name>庄行镇旅游事业管理中心</name>
			<location>
				<lat>30.900111</lat>
				<lng>121.391215</lng>
			</location>
							<address>庄行镇腾庄路614号</address>
													<uid>050cf145c3c67b3f4e5547e0</uid>
								</result>
			<result>
			<name>庄行镇广播电视站</name>
			<location>
				<lat>30.910816</lat>
				<lng>121.404021</lng>
			</location>
							<address>一新路61</address>
													<uid>3c0ea7c54ee8759dfaf0cb98</uid>
								</result>
			<result>
			<name>奉贤区庄行镇残联</name>
			<location>
				<lat>30.91417</lat>
				<lng>121.405084</lng>
			</location>
							<address>福利路145</address>
													<uid>e3e2cd9d343367e0c7f50df0</uid>
								</result>
			<result>
			<name>奉贤区庄行镇人大</name>
			<location>
				<lat>30.907238</lat>
				<lng>121.404164</lng>
			</location>
							<address>庄良路80</address>
										<telephone>(021)62568282</telephone>
										<uid>6deee3082fd1fe6b29fc480b</uid>
								</result>
			<result>
			<name>庄行镇西张卫生室</name>
			<location>
				<lat>30.946797</lat>
				<lng>121.405823</lng>
			</location>
							<address>庄行镇马路村129号</address>
													<uid>f1f5cac55ddefee536b06c37</uid>
								</result>
			<result>
			<name>庄行镇张塘卫生室</name>
			<location>
				<lat>30.958704</lat>
				<lng>121.385426</lng>
			</location>
							<address>大叶公路1888弄附近</address>
													<uid>341c35def2349cc0e7073882</uid>
								</result>
			<result>
			<name>庄行镇芦泾养殖场</name>
			<location>
				<lat>30.924657</lat>
				<lng>121.39335</lng>
			</location>
							<address>上海市奉贤区</address>
													<uid>a3f21eeeda5f673a2eb17e86</uid>
								</result>
	  </results>
</PlaceSearchResponse>
