<?xml version="1.0" encoding="utf-8" ?> 
<PlaceSearchResponse> 
  <status>0</status>
  <message>ok</message>
  	<total>6</total>
    <results>
			<result>
			<name>庙港文化公园</name>
			<location>
				<lat>31.280319</lat>
				<lng>121.675608</lng>
			</location>
							<address>川沙路582号</address>
													<uid>5508504d766ea3d2c7f0257f</uid>
								</result>
			<result>
			<name>庙港文化公园</name>
			<location>
				<lat>31.280828</lat>
				<lng>121.676742</lng>
			</location>
							<address>浦东新区川沙路582号</address>
													<uid>e6d8a99a59cd610e0e0a7063</uid>
								</result>
			<result>
			<name>庙港文化公园-东门</name>
			<location>
				<lat>31.280774</lat>
				<lng>121.676654</lng>
			</location>
							<address>川沙路582号</address>
													<uid>07405a94fdab3b54c91b95b0</uid>
								</result>
			<result>
			<name>庙港文化公园-西门</name>
			<location>
				<lat>31.279571</lat>
				<lng>121.673983</lng>
			</location>
							<address>川沙路582号</address>
													<uid>ff6b1f76f6ef9fd978f79619</uid>
								</result>
			<result>
			<name>庙港文化公园-东北门</name>
			<location>
				<lat>31.280967</lat>
				<lng>121.676514</lng>
			</location>
							<address>川沙路582号</address>
													<uid>d9b9e859172da7b6c4f50da4</uid>
								</result>
			<result>
			<name>加油站</name>
			<location>
				<lat>31.276322</lat>
				<lng>121.679133</lng>
			</location>
							<address>金海路与575乡道交叉口庙港文化公园附近</address>
										<telephone>021-58561594</telephone>
										<uid>076a3d0317a9d2fcd1ff231f</uid>
								</result>
	  </results>
</PlaceSearchResponse>
