<?xml version="1.0" encoding="utf-8" ?> 
<PlaceSearchResponse> 
  <status>0</status>
  <message>ok</message>
  	<total>51</total>
    <results>
			<result>
			<name>康健休闲广场</name>
			<location>
				<lat>31.15764</lat>
				<lng>121.417922</lng>
			</location>
							<address>上海市徐汇区桂平路188号</address>
													<uid>a5097bfab5d5aa7af13cba93</uid>
								</result>
			<result>
			<name>康健休闲广场-停车场</name>
			<location>
				<lat>31.157485</lat>
				<lng>121.417829</lng>
			</location>
							<address>徐汇区桂平路188号</address>
													<uid>4834dd6225adcda6725e803a</uid>
								</result>
			<result>
			<name>康健休闲广场停车场</name>
			<location>
				<lat>31.157949</lat>
				<lng>121.417703</lng>
			</location>
							<address>桂平路188-2号临附近</address>
													<uid>cdef4edfc574653328d7abd1</uid>
								</result>
			<result>
			<name>金仕堡健身（康健会所）</name>
			<location>
				<lat>31.1574</lat>
				<lng>121.417802</lng>
			</location>
							<address>徐汇区桂平路188号康健休闲广场B1楼(浦北路口)</address>
										<telephone>021-31120202</telephone>
										<uid>9026eaa70e831b2b2bb97c31</uid>
								</result>
			<result>
			<name>悠季莲花瑜伽康健会馆</name>
			<location>
				<lat>31.157485</lat>
				<lng>121.417829</lng>
			</location>
							<address>徐汇区桂平路188号康健休闲广场2楼203室</address>
										<telephone>(021)64153611</telephone>
										<uid>585864f3fc501dc4fca7782a</uid>
								</result>
			<result>
			<name>康健亮都新时代商场</name>
			<location>
				<lat>31.163635</lat>
				<lng>121.431761</lng>
			</location>
							<address>徐汇区浦北路188号康健休闲广场内（近浦北路）</address>
										<telephone>(021)54181616</telephone>
										<uid>c88eb290d772b4879ff77993</uid>
								</result>
			<result>
			<name>悠季莲花瑜伽康健会馆</name>
			<location>
				<lat>31.157485</lat>
				<lng>121.417829</lng>
			</location>
							<address>徐汇区桂平路188号康健休闲广场2楼203室</address>
										<telephone>(021)64153611</telephone>
										<uid>f4a33da9b762f1103010af6b</uid>
								</result>
			<result>
			<name>足芝堂</name>
			<location>
				<lat>31.15764</lat>
				<lng>121.417922</lng>
			</location>
							<address>闵行区桂平路188号康健休闲广场内(近浦北路)</address>
													<uid>97abc7a2a40450d8f82d61c1</uid>
								</result>
			<result>
			<name>传奇台球（浦北店）</name>
			<location>
				<lat>31.157485</lat>
				<lng>121.417829</lng>
			</location>
							<address>徐汇区桂平路188号康健休闲广场307室</address>
										<telephone>(021)54196598</telephone>
										<uid>340f932fe00120e649fc8d6d</uid>
								</result>
			<result>
			<name>上岛咖啡(浦北店)</name>
			<location>
				<lat>31.157771</lat>
				<lng>121.417832</lng>
			</location>
							<address>徐汇区桂平路188号康健休闲广场（近浦北路）</address>
										<telephone>(021)54184726</telephone>
										<uid>6deee308e6d6c57329fc4819</uid>
								</result>
	  </results>
</PlaceSearchResponse>
