<?xml version="1.0" encoding="utf-8" ?> 
<PlaceSearchResponse> 
  <status>0</status>
  <message>ok</message>
  	<total>57</total>
    <results>
			<result>
			<name>康定花园</name>
			<location>
				<lat>31.243509</lat>
				<lng>121.461472</lng>
			</location>
							<address>康定路2号</address>
										<telephone>(021)62562271</telephone>
										<uid>5ce2637d57121750af31e588</uid>
								</result>
			<result>
			<name>康定花园-东门</name>
			<location>
				<lat>31.241348</lat>
				<lng>121.454678</lng>
			</location>
							<address>泰兴路659</address>
													<uid>9d59029c29f03465f4e73be5</uid>
								</result>
			<result>
			<name>康定路888弄小区</name>
			<location>
				<lat>31.237643</lat>
				<lng>121.446597</lng>
			</location>
							<address>康定路888弄3-15号</address>
													<uid>89165c4ab00b56ff5b109347</uid>
								</result>
			<result>
			<name>康定路900号小区</name>
			<location>
				<lat>31.237126</lat>
				<lng>121.4465</lng>
			</location>
							<address>康定路900号</address>
													<uid>90763136fe5a8948b1077db0</uid>
								</result>
			<result>
			<name>康定路935弄小区</name>
			<location>
				<lat>31.236925</lat>
				<lng>121.446326</lng>
			</location>
							<address>康定路935弄</address>
													<uid>1e472a98980392483913fd68</uid>
								</result>
			<result>
			<name>康定路411号小区</name>
			<location>
				<lat>31.240607</lat>
				<lng>121.455031</lng>
			</location>
							<address>康定路411号</address>
													<uid>35fe3d8987cf6bc307fef593</uid>
								</result>
			<result>
			<name>蝴蝶湾花园</name>
			<location>
				<lat>31.244335</lat>
				<lng>121.462686</lng>
			</location>
							<address>泰兴路康定东路路口</address>
										<telephone>(021)62188550</telephone>
										<uid>a3e8341c6a45a5964afd3f07</uid>
								</result>
			<result>
			<name>三鑫花园</name>
			<location>
				<lat>31.235404</lat>
				<lng>121.436548</lng>
			</location>
							<address>康定路1586号</address>
										<telephone>(021)62307666</telephone>
										<uid>b2c8483009caffc67adbd240</uid>
								</result>
			<result>
			<name>良友金伴(康定路1店)</name>
			<location>
				<lat>31.24256</lat>
				<lng>121.460078</lng>
			</location>
							<address>康定路110-112</address>
										<telephone>(021)62567804</telephone>
										<uid>cf1e53608cfb911d2202629c</uid>
								</result>
			<result>
			<name>空中花园酒廊</name>
			<location>
				<lat>31.237164</lat>
				<lng>121.44384</lng>
			</location>
							<address>上海静安区康定路1018号5楼(近泰州路)</address>
										<telephone>(021)62339823</telephone>
										<uid>cf568db14304962ea104645a</uid>
								</result>
	  </results>
</PlaceSearchResponse>
