<?xml version="1.0" encoding="utf-8" ?> 
<PlaceSearchResponse> 
  <status>0</status>
  <message>ok</message>
  	<total>8</total>
    <results>
			<result>
			<name>延安中路大型公共绿地</name>
			<location>
				<lat>31.230819</lat>
				<lng>121.472941</lng>
			</location>
							<address>老成都北路大沽路路口</address>
													<uid>060f5e53c881ffd4081cc707</uid>
								</result>
			<result>
			<name>延安中路大型公共绿地静安段</name>
			<location>
				<lat>31.230765</lat>
				<lng>121.47286</lng>
			</location>
							<address>老成都北路大沽路路口</address>
													<uid>a5edbce67a0c411a770269de</uid>
								</result>
			<result>
			<name>延安中路大型公共绿地静安段(北二门)</name>
			<location>
				<lat>31.23139</lat>
				<lng>121.471997</lng>
			</location>
							<address>上海市静安区</address>
													<uid>1f04bdc2a0f03d9b2b11d19b</uid>
								</result>
			<result>
			<name>延安中路大型公共绿地-静安段东门</name>
			<location>
				<lat>31.230587</lat>
				<lng>121.473857</lng>
			</location>
							<address>老成都北路7弄附近</address>
													<uid>3835a7cb7e72aa8d601c6749</uid>
								</result>
			<result>
			<name>延安中路大型公共绿地-静安段南门</name>
			<location>
				<lat>31.230263</lat>
				<lng>121.472197</lng>
			</location>
							<address>上海市静安区</address>
													<uid>d3f900785f5cd4ee6e20b904</uid>
								</result>
			<result>
			<name>延安中路大型公共绿地静安段(北一门)</name>
			<location>
				<lat>31.23156</lat>
				<lng>121.473811</lng>
			</location>
							<address>上海市静安区</address>
													<uid>50623dc405f9254b705e804d</uid>
								</result>
			<result>
			<name>公共厕所</name>
			<location>
				<lat>31.226396</lat>
				<lng>121.471975</lng>
			</location>
							<address>延安中路大型公共绿地静安段(北一门)附近</address>
													<uid>dffd46427adc69cc3c9a5e04</uid>
								</result>
			<result>
			<name>公共厕所</name>
			<location>
				<lat>31.22838</lat>
				<lng>121.47301</lng>
			</location>
							<address>延安中路大型公共绿地静安段(北二门)附近</address>
													<uid>a5097bfac3c7b81df13cbaa0</uid>
								</result>
	  </results>
</PlaceSearchResponse>
