<?xml version="1.0" encoding="utf-8" ?> 
<PlaceSearchResponse> 
  <status>0</status>
  <message>ok</message>
  	<total>12</total>
    <results>
			<result>
			<name>徐家汇天主堂</name>
			<location>
				<lat>31.197604</lat>
				<lng>121.443093</lng>
			</location>
							<address>徐汇区蒲西路158号（文定路）</address>
										<telephone>(021)64382595</telephone>
										<uid>24c9da40183c3357e812e4d1</uid>
								</result>
			<result>
			<name>徐家汇天主教堂</name>
			<location>
				<lat>31.197604</lat>
				<lng>121.443093</lng>
			</location>
							<address>上海市徐汇区蒲西路158号</address>
										<telephone>(021)54259260</telephone>
										<uid>a0ce3a1eb473104840ab9abf</uid>
								</result>
			<result>
			<name>王品台塑牛排(徐家汇店)</name>
			<location>
				<lat>31.198136</lat>
				<lng>121.44423</lng>
			</location>
							<address>上海徐汇区漕溪北路86号4楼(近徐家汇天主教堂)</address>
										<telephone>(021)64282170</telephone>
										<uid>53349ee3748b3e7723026284</uid>
								</result>
			<result>
			<name>徐家汇源旅游服务中心</name>
			<location>
				<lat>31.197102</lat>
				<lng>121.443984</lng>
			</location>
							<address>徐汇区漕溪北路90号（近天主教堂）</address>
										<telephone>(021)54259260</telephone>
										<uid>732c4e36ec219d7f1d1d1161</uid>
								</result>
			<result>
			<name>阿拉屋里湖鲜馆</name>
			<location>
				<lat>31.196947</lat>
				<lng>121.442955</lng>
			</location>
							<address>徐汇区蒲西路166号(近徐家汇天主教堂)</address>
													<uid>08fc93dfb15de0889b68b41e</uid>
								</result>
			<result>
			<name>上海兴拓投资管理有限公司</name>
			<location>
				<lat>31.197356</lat>
				<lng>121.444756</lng>
			</location>
							<address>上海市徐汇区漕溪北路333号中金国际广场B栋1206(徐家汇天主教堂对面)</address>
													<uid>2d70c398324d26bcd6b74ed4</uid>
								</result>
			<result>
			<name>COSTACOFFEE(徐家汇教堂店)</name>
			<location>
				<lat>31.196947</lat>
				<lng>121.444662</lng>
			</location>
							<address>徐汇区漕溪北路90号徐家汇天主教堂广场南侧(近蒲西路)</address>
										<telephone>(021)54259279</telephone>
										<uid>f2f15ffbff816991631c6760</uid>
								</result>
			<result>
			<name>咔嚓咔嚓专业自拍照相馆（徐家汇店）</name>
			<location>
				<lat>31.197943</lat>
				<lng>121.445264</lng>
			</location>
							<address>徐汇区漕溪北路99弄尊园2号楼11D（1104室）徐家汇天主教堂对面，真功夫快餐右侧进入</address>
										<telephone>4006021588</telephone>
										<uid>a845d46118fb88e3130daaa3</uid>
								</result>
			<result>
			<name>天主教上海教区</name>
			<location>
				<lat>31.196909</lat>
				<lng>121.444877</lng>
			</location>
							<address>上海徐汇区漕溪北路375号中金国际广场C座20层</address>
										<telephone>(021)61262588</telephone>
										<uid>1bea9b2e30c05bf1f7b916c2</uid>
								</result>
			<result>
			<name>上海申晨餐饮管理有限公司</name>
			<location>
				<lat>31.197604</lat>
				<lng>121.443092</lng>
			</location>
							<address>上海市徐家汇蒲西路166号(漕溪北路天主教堂右侧)</address>
													<uid>219660363829f1deb8bd637e</uid>
								</result>
	  </results>
</PlaceSearchResponse>
