<?xml version="1.0" encoding="utf-8" ?> 
<PlaceSearchResponse> 
  <status>0</status>
  <message>ok</message>
  	<total>38</total>
    <results>
			<result>
			<name>徐汇滨江公共开放空间</name>
			<location>
				<lat>31.187379</lat>
				<lng>121.470687</lng>
			</location>
							<address>滨江大道3222号</address>
													<uid>803708f1f879ef0701897213</uid>
								</result>
			<result>
			<name>滨江路/临江路(路口)</name>
			<location>
				<lat>31.158992</lat>
				<lng>121.465904</lng>
			</location>
							<address>上海市徐汇区</address>
													<uid>81d6139369ccd4ddd0ff2375</uid>
								</result>
			<result>
			<name>滨江路</name>
			<location>
				<lat>31.160336</lat>
				<lng>121.467173</lng>
			</location>
							<address>上海市徐汇区</address>
													<uid>a26d36b221eb29c1c5f02549</uid>
								</result>
			<result>
			<name>龙耀滨江广场</name>
			<location>
				<lat>31.174581</lat>
				<lng>121.470291</lng>
			</location>
							<address>龙腾大道(近龙华)</address>
													<uid>d496a08d7c554c179cec2bef</uid>
								</result>
			<result>
			<name>Isola Bella</name>
			<location>
				<lat>31.187054</lat>
				<lng>121.470324</lng>
			</location>
							<address>滨江大道3222号</address>
													<uid>c70fc8c5098ecf264e2fdf59</uid>
								</result>
			<result>
			<name>滨江路临江路</name>
			<location>
				<lat>31.158686</lat>
				<lng>121.465583</lng>
			</location>
							<address>932路;1222路</address>
													<uid>86334a80c8a4870ed02dd6dc</uid>
								</result>
			<result>
			<name>上海市西南模范中学(滨江路)</name>
			<location>
				<lat>31.158907</lat>
				<lng>121.465607</lng>
			</location>
							<address>临江路28号</address>
										<telephone>(021)64232457,(021)64238716</telephone>
										<uid>11345cda80981e0232870a27</uid>
								</result>
			<result>
			<name>kk家~私房菜</name>
			<location>
				<lat>31.178952</lat>
				<lng>121.465861</lng>
			</location>
							<address>徐汇区百汇园(徐汇滨江龙腾大道丰谷路口)</address>
										<telephone>13901833371</telephone>
										<uid>e7e212b6f65b56f3f2193727</uid>
								</result>
			<result>
			<name>上海徐汇区民办滨江幼儿园</name>
			<location>
				<lat>31.179493</lat>
				<lng>121.463181</lng>
			</location>
							<address>徐汇区云锦路80弄10号龙华飞机场内</address>
										<telephone>021-64380668</telephone>
										<uid>0a46dc0f392ff85d306212ef</uid>
								</result>
			<result>
			<name>滨江小厨</name>
			<location>
				<lat>31.19348</lat>
				<lng>121.469184</lng>
			</location>
							<address>上海徐汇区龙华中路510号(近枫林路)</address>
										<telephone>(021)64038033</telephone>
										<uid>84e93cd87e7e6dc279b55c02</uid>
								</result>
	  </results>
</PlaceSearchResponse>
