<?xml version="1.0" encoding="utf-8" ?> 
<PlaceSearchResponse> 
  <status>0</status>
  <message>ok</message>
  	<total>154</total>
    <results>
			<result>
			<name>徐汇中学</name>
			<location>
				<lat>31.199372</lat>
				<lng>121.442142</lng>
			</location>
							<address>徐汇区虹桥路68号(近华山路)</address>
										<telephone>(021)64390726</telephone>
										<uid>e6ee2fd2304bda492b11d1c0</uid>
								</result>
			<result>
			<name>徐汇中学西校区</name>
			<location>
				<lat>31.198754</lat>
				<lng>121.432691</lng>
			</location>
							<address>番禺路1138号</address>
													<uid>c8e8f633f78ab16dab0dd8c0</uid>
								</result>
			<result>
			<name>上海市徐汇职业高级中学(漕东支路)</name>
			<location>
				<lat>31.178543</lat>
				<lng>121.444159</lng>
			</location>
							<address>上海市徐汇区漕东支路101号</address>
													<uid>2f267fac8366d62b8c55ec71</uid>
								</result>
			<result>
			<name>徐汇中学游泳池</name>
			<location>
				<lat>31.198801</lat>
				<lng>121.442715</lng>
			</location>
							<address>徐汇区虹桥路68号(近恭城路)</address>
										<telephone>(021)64381443</telephone>
										<uid>8cba4bb09140609dad045762</uid>
								</result>
			<result>
			<name>上海市徐汇职业高级中学(西门)</name>
			<location>
				<lat>31.178543</lat>
				<lng>121.444159</lng>
			</location>
							<address>上海市徐汇区</address>
													<uid>f2a2c63657db395d1d1d1166</uid>
								</result>
			<result>
			<name>徐汇中学游泳池</name>
			<location>
				<lat>31.19948</lat>
				<lng>121.442173</lng>
			</location>
							<address>徐汇区虹桥路68号（近恭城路）</address>
										<telephone>(021)64381443-8003</telephone>
										<uid>a27553be8968923740ab9a49</uid>
								</result>
			<result>
			<name>徐汇职业高级中学(南门)</name>
			<location>
				<lat>31.216954</lat>
				<lng>121.455479</lng>
			</location>
							<address>复兴中路1464</address>
													<uid>fca75d2c632262804207c1a8</uid>
								</result>
			<result>
			<name>徐汇中学足球场</name>
			<location>
				<lat>31.199472</lat>
				<lng>121.442172</lng>
			</location>
							<address>徐汇区虹桥路68号(近东方商厦)</address>
													<uid>89428ccdd87fd5cdbbbd63a9</uid>
								</result>
			<result>
			<name>上海市徐汇职业高级中学(天等路)</name>
			<location>
				<lat>31.140882</lat>
				<lng>121.435009</lng>
			</location>
							<address>天等路208号</address>
										<telephone>(022)64240897</telephone>
										<uid>a4c1604903fb53955abbbcf5</uid>
								</result>
			<result>
			<name>上海市徐汇职业高级中学(北门)</name>
			<location>
				<lat>31.141322</lat>
				<lng>121.435802</lng>
			</location>
							<address>上中西路145</address>
													<uid>84bf3a207ecdf15fb020a84f</uid>
								</result>
	  </results>
</PlaceSearchResponse>
