<?xml version="1.0" encoding="utf-8" ?> 
<PlaceSearchResponse> 
  <status>0</status>
  <message>ok</message>
  	<total>1710</total>
    <results>
			<result>
			<name>恒隆广场写字楼</name>
			<location>
				<lat>31.23454</lat>
				<lng>121.460598</lng>
			</location>
							<address>静安南京西路1266号（靠近陕西北路）</address>
													<uid>d0da6eed574140d7e81e97bf</uid>
								</result>
			<result>
			<name>上海恒隆广场积家旗舰店</name>
			<location>
				<lat>31.23403</lat>
				<lng>121.460481</lng>
			</location>
							<address>上海市静安区南京西路1266号</address>
										<telephone>(021)62880688</telephone>
										<uid>803708f10731f26001897237</uid>
								</result>
			<result>
			<name>港汇恒隆广场</name>
			<location>
				<lat>31.200561</lat>
				<lng>121.443764</lng>
			</location>
							<address>上海市徐汇区虹桥路1号</address>
										<telephone>(021)64070115</telephone>
										<uid>1bf85b25d6665bbda0a93498</uid>
								</result>
			<result>
			<name>恒隆广场办公楼1号楼</name>
			<location>
				<lat>31.234439</lat>
				<lng>121.460449</lng>
			</location>
							<address>上海静安区南京西路1266号</address>
													<uid>bf29b70250a570e709b93a42</uid>
								</result>
			<result>
			<name>恒隆广场办公楼2号楼</name>
			<location>
				<lat>31.234339</lat>
				<lng>121.459587</lng>
			</location>
							<address>上海静安区南京西路1266号</address>
										<telephone>(021)62790910</telephone>
										<uid>34e48508d8f8eae3d9d8918b</uid>
								</result>
			<result>
			<name>LOUIS VUITTON恒隆广场旗舰店</name>
			<location>
				<lat>31.233691</lat>
				<lng>121.46048</lng>
			</location>
							<address>南京西路1266号Plaza66恒隆广场1层136</address>
										<telephone>(021)62880182</telephone>
										<uid>2a7a25ec3ae2d4626d3e1b86</uid>
								</result>
			<result>
			<name>港汇恒隆广场美食</name>
			<location>
				<lat>31.201611</lat>
				<lng>121.442814</lng>
			</location>
							<address>徐汇区虹桥路1号(近恭城路)</address>
										<telephone>(021)54355529</telephone>
										<uid>e0c7810d35cf9c3addee8b16</uid>
								</result>
			<result>
			<name>恒隆广场一期</name>
			<location>
				<lat>31.23366</lat>
				<lng>121.460475</lng>
			</location>
							<address>上海市南京西路1266号</address>
													<uid>1b3d74ed3d0d9511aeee7ab4</uid>
								</result>
			<result>
			<name>恒隆广场-停车场</name>
			<location>
				<lat>31.234594</lat>
				<lng>121.459356</lng>
			</location>
							<address>南京西路1266号恒隆广场内(近陕西北路)</address>
													<uid>b84856543445c8c3260bd084</uid>
								</result>
			<result>
			<name>上海恒隆广场路易威登之家</name>
			<location>
				<lat>31.233691</lat>
				<lng>121.460355</lng>
			</location>
							<address>上海市南京西路1266号恒隆广场136-138商铺</address>
										<telephone>4006588555</telephone>
										<uid>45b5d78c8096c5ccc27da284</uid>
								</result>
	  </results>
</PlaceSearchResponse>
