<?xml version="1.0" encoding="utf-8" ?> 
<PlaceSearchResponse> 
  <status>0</status>
  <message>ok</message>
  	<total>23</total>
    <results>
			<result>
			<name>悦宾楼</name>
			<location>
				<lat>31.232425</lat>
				<lng>121.497653</lng>
			</location>
							<address>旧校场路69号</address>
													<uid>35debf29c23b1945a7da39ab</uid>
								</result>
			<result>
			<name>东郊宾馆-悦宾楼</name>
			<location>
				<lat>31.230618</lat>
				<lng>121.597332</lng>
			</location>
							<address>金科路1800号</address>
										<telephone>(021)58958888</telephone>
										<uid>b58d25815dd12f03213bf251</uid>
								</result>
			<result>
			<name>东郊克拉克海奇休闲健身中心</name>
			<location>
				<lat>31.230618</lat>
				<lng>121.597332</lng>
			</location>
							<address>金科路1800号东郊宾馆悦宾楼</address>
										<telephone>(021)38919888</telephone>
										<uid>9f662bfb79152df335b06c50</uid>
								</result>
			<result>
			<name>东郊音乐文化沙龙</name>
			<location>
				<lat>31.230618</lat>
				<lng>121.597332</lng>
			</location>
							<address>金科路1800号东郊宾馆悦宾楼2层</address>
										<telephone>(021)58958888</telephone>
										<uid>9c18804ace307754b020a8f6</uid>
								</result>
			<result>
			<name>东郊宾馆-壁球馆</name>
			<location>
				<lat>31.230618</lat>
				<lng>121.597332</lng>
			</location>
							<address>金科路1800号东郊宾馆悦宾楼B层</address>
										<telephone>(021)58958888</telephone>
										<uid>8de50f2ce4cccc9112882403</uid>
								</result>
			<result>
			<name>钰满堂珠宝玉器</name>
			<location>
				<lat>31.232471</lat>
				<lng>121.497574</lng>
			</location>
							<address>旧校场路69号悦宾楼</address>
													<uid>25b7ea0e2ed8568840afe614</uid>
								</result>
			<result>
			<name>美美小铁板</name>
			<location>
				<lat>31.232417</lat>
				<lng>121.497656</lng>
			</location>
							<address>黄浦区旧校场路69号悦宾楼新食代美食广场</address>
													<uid>4fc3161a7f3140b03a13fdd5</uid>
								</result>
			<result>
			<name>海上相声大会(豫上海分店)</name>
			<location>
				<lat>31.232394</lat>
				<lng>121.497491</lng>
			</location>
							<address>旧校场路69号悦宾楼3楼</address>
										<telephone>(021)55896588,15692176030</telephone>
										<uid>dd536694b80fe7a6283a9f8f</uid>
								</result>
			<result>
			<name>老邻居小吃世界</name>
			<location>
				<lat>31.232378</lat>
				<lng>121.497663</lng>
			</location>
							<address>上海市黄浦区旧校场路69号悦宾楼</address>
										<telephone>021-63553648</telephone>
										<uid>41572e00ca2287adb45f1ef9</uid>
								</result>
			<result>
			<name>老城隍庙工艺品商店</name>
			<location>
				<lat>31.231051</lat>
				<lng>121.498514</lng>
			</location>
							<address>旧校场路69号悦宾楼</address>
										<telephone>(021)63865700</telephone>
										<uid>a7c56ee027204baaa2acc4f8</uid>
								</result>
	  </results>
</PlaceSearchResponse>
