<?xml version="1.0" encoding="utf-8" ?> 
<PlaceSearchResponse> 
  <status>0</status>
  <message>ok</message>
  	<total>26</total>
    <results>
			<result>
			<name>上海扬子江国际商务大楼</name>
			<location>
				<lat>31.208599</lat>
				<lng>121.411975</lng>
			</location>
							<address>延安西路2111</address>
										<telephone>(021)62750000</telephone>
										<uid>5e53af1a9aeef45e4151c01f</uid>
								</result>
			<result>
			<name>扬子江大厦</name>
			<location>
				<lat>31.254639</lat>
				<lng>121.50105</lng>
			</location>
							<address>东长治路299弄1～2号</address>
													<uid>f5e3bcaec356fbc05e17c336</uid>
								</result>
			<result>
			<name>扬子大楼旧址</name>
			<location>
				<lat>31.24574</lat>
				<lng>121.496468</lng>
			</location>
							<address>中山东一路26号</address>
													<uid>51fcaf4ccd100789b5f42fc2</uid>
								</result>
			<result>
			<name>扬子大楼旧址</name>
			<location>
				<lat>31.24574</lat>
				<lng>121.496468</lng>
			</location>
							<address>中山东一路26号</address>
													<uid>7f249856523e1f6ec6effb80</uid>
								</result>
			<result>
			<name>扬子江大厦-停车库</name>
			<location>
				<lat>31.254669</lat>
				<lng>121.501371</lng>
			</location>
							<address>西安路299弄</address>
													<uid>e21d7c091741e764636858b8</uid>
								</result>
			<result>
			<name>扬子江大厦停车场-出入口</name>
			<location>
				<lat>31.254615</lat>
				<lng>121.501412</lng>
			</location>
							<address>东长治路299弄附近</address>
													<uid>23e81d3c1f7b59ef2a02e105</uid>
								</result>
			<result>
			<name>扬子国旅</name>
			<location>
				<lat>31.209294</lat>
				<lng>121.483717</lng>
			</location>
							<address>中国上海斜土路486弄白云大厦2102室</address>
										<telephone>(021)53027309</telephone>
										<uid>de2429856e4f0e693686f423</uid>
								</result>
			<result>
			<name>扬子江快运航空有限公司</name>
			<location>
				<lat>31.24097</lat>
				<lng>121.518303</lng>
			</location>
							<address>浦东南路588号浦发大厦25F</address>
													<uid>a0c019eb21d434218d772788</uid>
								</result>
			<result>
			<name>扬子江药业集团有限公司</name>
			<location>
				<lat>31.23843</lat>
				<lng>121.488358</lng>
			</location>
							<address>广东路500号世界贸易大厦2303</address>
													<uid>e2127b031af85fbd9e95de7c</uid>
								</result>
			<result>
			<name>扬子江药业集团有限公司</name>
			<location>
				<lat>31.238199</lat>
				<lng>121.488454</lng>
			</location>
							<address>广东路500号世界贸易大厦23层2303室</address>
													<uid>81fdde8a787126345fd4fe20</uid>
								</result>
	  </results>
</PlaceSearchResponse>
