<?xml version="1.0" encoding="utf-8" ?> 
<PlaceSearchResponse> 
  <status>0</status>
  <message>ok</message>
  	<total>18</total>
    <results>
			<result>
			<name>报国寺</name>
			<location>
				<lat>31.095637</lat>
				<lng>120.988215</lng>
			</location>
							<address>青浦区朱家角镇淀峰村（近淀山湖）</address>
										<telephone>(021)69247826</telephone>
										<uid>277ff3d5cf0dc1feb75f1e99</uid>
								</result>
			<result>
			<name>报国寺钟楼</name>
			<location>
				<lat>31.095498</lat>
				<lng>120.988008</lng>
			</location>
							<address>上海市青浦区朱家角镇西淀山湖畔淀峰村452号报国寺内</address>
													<uid>84569b9490344e969ef7796a</uid>
								</result>
			<result>
			<name>财神殿</name>
			<location>
				<lat>31.095583</lat>
				<lng>120.987873</lng>
			</location>
							<address>上海市青浦区朱家角镇西淀山湖畔淀峰村452号报国寺内</address>
													<uid>85ae8776865542b93a04b1b8</uid>
								</result>
			<result>
			<name>净土人间</name>
			<location>
				<lat>31.096</lat>
				<lng>120.987595</lng>
			</location>
							<address>上海市青浦区朱家角镇西淀山湖畔淀峰村452号报国寺内</address>
													<uid>d19abc8a0225506aa8175aac</uid>
								</result>
			<result>
			<name>客堂</name>
			<location>
				<lat>31.095745</lat>
				<lng>120.988035</lng>
			</location>
							<address>上海市青浦区朱家角镇西淀山湖畔淀峰村452号报国寺内</address>
													<uid>c387a6ac0b2973d61f3894d0</uid>
								</result>
			<result>
			<name>地藏殿</name>
			<location>
				<lat>31.095869</lat>
				<lng>120.987954</lng>
			</location>
							<address>上海市青浦区朱家角镇西淀山湖畔淀峰村452号报国寺内</address>
													<uid>4051ecb932fcc1ce601c6795</uid>
								</result>
			<result>
			<name>天王殿</name>
			<location>
				<lat>31.095498</lat>
				<lng>120.988008</lng>
			</location>
							<address>上海市青浦区朱家角镇西淀山湖畔淀峰村452号报国寺内</address>
													<uid>8233b70b27253c152fe67b03</uid>
								</result>
			<result>
			<name>药师殿</name>
			<location>
				<lat>31.095598</lat>
				<lng>120.987649</lng>
			</location>
							<address>上海市青浦区朱家角镇西淀山湖畔淀峰村452号报国寺内</address>
													<uid>4ba79fb0e9ffba3c2b201afb</uid>
								</result>
			<result>
			<name>法物流通处</name>
			<location>
				<lat>31.095622</lat>
				<lng>120.987981</lng>
			</location>
							<address>上海市青浦区朱家角镇西淀山湖畔淀峰村452号报国寺内</address>
													<uid>8202413b673ce62635b06c1e</uid>
								</result>
			<result>
			<name>禅茶坊</name>
			<location>
				<lat>31.09556</lat>
				<lng>120.987775</lng>
			</location>
							<address>上海市青浦区朱家角镇西淀山湖畔淀峰村452号报国寺内</address>
													<uid>3330ac251ea28fd1b54f5460</uid>
								</result>
	  </results>
</PlaceSearchResponse>
