<?xml version="1.0" encoding="utf-8" ?> 
<PlaceSearchResponse> 
  <status>0</status>
  <message>ok</message>
  	<total>68</total>
    <results>
			<result>
			<name>新纪元国际广场</name>
			<location>
				<lat>31.29254</lat>
				<lng>121.527643</lng>
			</location>
							<address>上海杨浦区黄兴路1599号</address>
										<telephone>18821192732</telephone>
										<uid>04bdf4a3d768074e354aae23</uid>
								</result>
			<result>
			<name>新纪元国际广场-南门</name>
			<location>
				<lat>31.292231</lat>
				<lng>121.527759</lng>
			</location>
							<address>上海市杨浦区</address>
													<uid>18ac6a4dc9d5dc7ac61b7569</uid>
								</result>
			<result>
			<name>新纪元国际广场-北门</name>
			<location>
				<lat>31.292902</lat>
				<lng>121.527126</lng>
			</location>
							<address>上海市杨浦区</address>
													<uid>301b02411550a5504207c183</uid>
								</result>
			<result>
			<name>新纪元国际广场地下车库</name>
			<location>
				<lat>31.292601</lat>
				<lng>121.527405</lng>
			</location>
							<address>上海市杨浦区</address>
													<uid>c594469c165a94c959f6be2b</uid>
								</result>
			<result>
			<name>新纪元国际广场-停车场</name>
			<location>
				<lat>31.292894</lat>
				<lng>121.527036</lng>
			</location>
							<address>上海市杨浦区</address>
													<uid>884e59f378b9be69c056accb</uid>
								</result>
			<result>
			<name>新纪元国际广场-停车场</name>
			<location>
				<lat>31.292894</lat>
				<lng>121.527035</lng>
			</location>
							<address>上海市杨浦区</address>
													<uid>7bb9571d89d53e6e734b8781</uid>
								</result>
			<result>
			<name>新纪元国际广场地下停车场入口</name>
			<location>
				<lat>31.292771</lat>
				<lng>121.527502</lng>
			</location>
							<address>黄兴路1599号新纪元国际广场附近</address>
													<uid>a3644bbeec8c25bd07026f6f</uid>
								</result>
			<result>
			<name>新纪元国际广场路面和地下车库</name>
			<location>
				<lat>31.292763</lat>
				<lng>121.527821</lng>
			</location>
							<address>杨浦区黄兴路1599号</address>
													<uid>0d5afa7c3fd8f60cbb17e708</uid>
								</result>
			<result>
			<name>五木国际贸易有限公司</name>
			<location>
				<lat>31.29254</lat>
				<lng>121.527643</lng>
			</location>
							<address>黄兴路1599号新纪元国际广场9层915/916</address>
													<uid>0810992590df6cc10f0e6be7</uid>
								</result>
			<result>
			<name>上海青翼国际货运有限公司</name>
			<location>
				<lat>31.292532</lat>
				<lng>121.527644</lng>
			</location>
							<address>上海市杨浦区黄兴路1599号新纪元国际广场1001-1002室</address>
										<telephone>(021)33627651,(021)33627652,(021)33627653</telephone>
										<uid>0cb8e09af58990c0246e9837</uid>
								</result>
	  </results>
</PlaceSearchResponse>
