<?xml version="1.0" encoding="utf-8" ?> 
<PlaceSearchResponse> 
  <status>0</status>
  <message>ok</message>
  	<total>5960</total>
    <results>
			<result>
			<name>豫园时尚街</name>
			<location>
				<lat>31.231467</lat>
				<lng>121.498845</lng>
			</location>
							<address>文昌路10号城隍庙内</address>
										<telephone>(021)63264213</telephone>
										<uid>f757e6ee78d5870e270bd0f1</uid>
								</result>
			<result>
			<name>赵巷时尚创意街</name>
			<location>
				<lat>31.157586</lat>
				<lng>121.199532</lng>
			</location>
							<address>赵重公路73</address>
													<uid>481b5d2dfc131065adb22ac1</uid>
								</result>
			<result>
			<name>百联时尚街 b区</name>
			<location>
				<lat>31.251181</lat>
				<lng>121.390415</lng>
			</location>
							<address>上海市普陀区真光路1288号上海百联中环购物广场2层</address>
													<uid>497da5bbf43398e9bea24082</uid>
								</result>
			<result>
			<name>百联中环时尚街</name>
			<location>
				<lat>31.250973</lat>
				<lng>121.38935</lng>
			</location>
							<address>真光路1288号百联中环购物广场1-3层A区1层</address>
													<uid>fc8483dea6554412081cc7bf</uid>
								</result>
			<result>
			<name>台北时尚风情街</name>
			<location>
				<lat>31.357704</lat>
				<lng>121.265254</lng>
			</location>
							<address>白银路阿克苏路路口</address>
										<telephone>(021)62276999</telephone>
										<uid>0c7a9c0102a1b1574afc8d7e</uid>
								</result>
			<result>
			<name>梅川路文化时尚休闲街</name>
			<location>
				<lat>31.250579</lat>
				<lng>121.385457</lng>
			</location>
							<address>普陀区长征镇梅川路1480号</address>
										<telephone>18821149219</telephone>
										<uid>a101efa0cfab1701b0077daf</uid>
								</result>
			<result>
			<name>家隆流行服饰街</name>
			<location>
				<lat>31.223802</lat>
				<lng>121.464969</lng>
			</location>
							<address>陕西南路238号中轻商务楼1层</address>
													<uid>8e2b5f0cc894f71c8605bf1f</uid>
								</result>
			<result>
			<name>风尚造型(民星路店)</name>
			<location>
				<lat>31.317724</lat>
				<lng>121.539064</lng>
			</location>
							<address>民星路620号</address>
										<telephone>15000583836</telephone>
										<uid>3da00a162e8e7d0b2a02e1ac</uid>
								</result>
			<result>
			<name>风尚造型（延长路店）</name>
			<location>
				<lat>31.278521</lat>
				<lng>121.463742</lng>
			</location>
							<address>闸北区延长路221号</address>
										<telephone>13501679918</telephone>
										<uid>d311d48cb43f1b3700ff2d58</uid>
								</result>
			<result>
			<name>Jeans日式&amp;风尚(安顺路店)</name>
			<location>
				<lat>31.206298</lat>
				<lng>121.420475</lng>
			</location>
							<address>长宁区安顺路268号(近中山西路)</address>
										<telephone>(021)32090071</telephone>
										<uid>8cba4bb08ebf139dad045751</uid>
								</result>
	  </results>
</PlaceSearchResponse>
