<?xml version="1.0" encoding="utf-8" ?> 
<PlaceSearchResponse> 
  <status>0</status>
  <message>ok</message>
  	<total>85</total>
    <results>
			<result>
			<name>课植园</name>
			<location>
				<lat>31.119491</lat>
				<lng>121.059905</lng>
			</location>
							<address>朱家角镇西井街119号（近涌泉桥）(近涌泉桥)</address>
													<uid>22d43150bb0aaeacae0457e5</uid>
								</result>
			<result>
			<name>朱家角课植园</name>
			<location>
				<lat>31.12014</lat>
				<lng>121.06006</lng>
			</location>
							<address>青浦区朱家角镇西井街119号（近涌泉桥）（近涌泉桥）</address>
										<telephone>(021)59240808</telephone>
										<uid>55de2fc77a7cb5419e82eaab</uid>
								</result>
			<result>
			<name>课植园码头</name>
			<location>
				<lat>31.119754</lat>
				<lng>121.060061</lng>
			</location>
							<address>上海市青浦区朱家角镇西井街127-129号(课植园旁)上海朱家角古镇旅游区内</address>
													<uid>314d41415b4f7451c42ba114</uid>
								</result>
			<result>
			<name>珠湖路课植园路</name>
			<location>
				<lat>31.120832</lat>
				<lng>121.055732</lng>
			</location>
							<address>朱家角1路</address>
													<uid>7d113e3646aae5c82cb17e84</uid>
								</result>
			<result>
			<name>课植园路/珠溪路(路口)</name>
			<location>
				<lat>31.119483</lat>
				<lng>121.052646</lng>
			</location>
							<address>上海市青浦区</address>
													<uid>803708f13897af780189727d</uid>
								</result>
			<result>
			<name>上海UmaHostel</name>
			<location>
				<lat>31.11939</lat>
				<lng>121.059899</lng>
			</location>
							<address>上海上海市青浦区朱家角西井街103弄4号(课植园旁小辰光饮品巷内)</address>
										<telephone>(021)59240487</telephone>
										<uid>d991e11625f3f44c1f389411</uid>
								</result>
			<result>
			<name>凹</name>
			<location>
				<lat>31.119823</lat>
				<lng>121.06028</lng>
			</location>
							<address>上海市青浦区朱家角西井街120号（课植园斜对面）</address>
										<telephone>13122890690</telephone>
										<uid>2dd8b631c8978dcceee4a542</uid>
								</result>
			<result>
			<name>朱家角凹</name>
			<location>
				<lat>31.119816</lat>
				<lng>121.060276</lng>
			</location>
							<address>西井街120号课植园</address>
													<uid>dde5e16ebbb26470f7b916ec</uid>
								</result>
			<result>
			<name>朱家角凹</name>
			<location>
				<lat>31.1132</lat>
				<lng>121.054213</lng>
			</location>
							<address>上海市青浦区西井街120号（课植园对面）</address>
										<telephone>13122890690</telephone>
										<uid>affeb42cf25616bfa8059dbe</uid>
								</result>
			<result>
			<name>朱家角古镇-售票处</name>
			<location>
				<lat>31.120272</lat>
				<lng>121.06028</lng>
			</location>
							<address>上海市青浦区课植园路朱家角翔宁浜763号</address>
										<telephone>(021)59240077</telephone>
										<uid>48ebacdfc3b3bb1b36b06c63</uid>
								</result>
	  </results>
</PlaceSearchResponse>
