<?xml version="1.0" encoding="utf-8" ?> 
<PlaceSearchResponse> 
  <status>0</status>
  <message>ok</message>
  	<total>123</total>
    <results>
			<result>
			<name>太阳岛国际旅游度假区</name>
			<location>
				<lat>31.041669</lat>
				<lng>121.096682</lng>
			</location>
							<address>上海市青浦区朱家角镇沈巷沈太路2588号</address>
													<uid>da63038f884c5f7979dbd27b</uid>
								</result>
			<result>
			<name>城隍庙</name>
			<location>
				<lat>31.114745</lat>
				<lng>121.060214</lng>
			</location>
							<address>上海市青浦区朱家角镇曹河路与美周路路口以东约60米</address>
										<telephone>(021)59242597</telephone>
										<uid>48e995a626afb28c40afe698</uid>
								</result>
			<result>
			<name>朱家角野生动植物湿地公园</name>
			<location>
				<lat>31.136949</lat>
				<lng>121.054973</lng>
			</location>
							<address>朱家角西洋淀1号</address>
													<uid>79a6c4649364e4b1f603b810</uid>
								</result>
			<result>
			<name>朱家角野生动植物湿地庄园</name>
			<location>
				<lat>31.136949</lat>
				<lng>121.054966</lng>
			</location>
							<address>西洋淀村1</address>
										<telephone>(021)59238800</telephone>
										<uid>b43758cfa33d58c7081cc7f5</uid>
								</result>
			<result>
			<name>证大朱家角艺术馆</name>
			<location>
				<lat>31.117149</lat>
				<lng>121.061823</lng>
			</location>
							<address>青浦区朱家角古镇北大街222号</address>
										<telephone>(021)59243133,(021)59721001</telephone>
										<uid>6677ce5fd7c960469122e02e</uid>
								</result>
			<result>
			<name>寻梦园香草农场-停车场</name>
			<location>
				<lat>31.050518</lat>
				<lng>121.089741</lng>
			</location>
							<address>朱家角镇沈太路2365号</address>
										<telephone>(021)62758862</telephone>
										<uid>01fac96700433c9f09a8d443</uid>
								</result>
			<result>
			<name>水乐堂</name>
			<location>
				<lat>31.117389</lat>
				<lng>121.060987</lng>
			</location>
							<address>朱家角古镇内西井街1号南20米</address>
													<uid>8fbc809c8f46186c1b11d562</uid>
								</result>
			<result>
			<name>放生桥</name>
			<location>
				<lat>31.117752</lat>
				<lng>121.062531</lng>
			</location>
							<address>上海市青浦区朱家角古镇内（北大街和东井街之间）</address>
										<telephone>(021)59246658</telephone>
										<uid>4b22c469034c1e6325e0a051</uid>
								</result>
			<result>
			<name>朱家角人文艺术馆</name>
			<location>
				<lat>31.115055</lat>
				<lng>121.061863</lng>
			</location>
							<address>上海市青浦区朱家角镇美周路36号</address>
										<telephone>(021)59246950</telephone>
										<uid>f27386937f3d09c476e5b670</uid>
								</result>
			<result>
			<name>3D幻视艺术馆</name>
			<location>
				<lat>31.103197</lat>
				<lng>121.046802</lng>
			</location>
							<address>上海市青浦区朱家角镇尚都里休闲广场9栋（靠近放生桥）</address>
										<telephone>13585746396</telephone>
										<uid>5e5aa1321498791c0aa8d49a</uid>
								</result>
	  </results>
</PlaceSearchResponse>
