<?xml version="1.0" encoding="utf-8" ?> 
<PlaceSearchResponse> 
  <status>0</status>
  <message>ok</message>
  	<total>448</total>
    <results>
			<result>
			<name>松江体育场</name>
			<location>
				<lat>31.021981</lat>
				<lng>121.23874</lng>
			</location>
							<address>松江区九峰路2号(九峰路乐都路)</address>
										<telephone>(021)57726804</telephone>
										<uid>e9bbc00c9e7e75cd770269e9</uid>
								</result>
			<result>
			<name>上海大学生体育场</name>
			<location>
				<lat>31.057463</lat>
				<lng>121.217543</lng>
			</location>
							<address>龙腾路388号</address>
													<uid>f4a33da9b982e3773010af6e</uid>
								</result>
			<result>
			<name>东华大学松江校区体育场(西门)</name>
			<location>
				<lat>31.057509</lat>
				<lng>121.217487</lng>
			</location>
							<address>龙腾路388号</address>
													<uid>5660744dc6dd7772f02d8315</uid>
								</result>
			<result>
			<name>松江体育馆</name>
			<location>
				<lat>31.020774</lat>
				<lng>121.237181</lng>
			</location>
							<address>松江区九峰路2号（九峰路乐都路）</address>
										<telephone>(021)57726804</telephone>
										<uid>6368d939d28f8756fa42b220</uid>
								</result>
			<result>
			<name>松江体育中心</name>
			<location>
				<lat>31.019753</lat>
				<lng>121.24632</lng>
			</location>
							<address>松江区乐都路38号</address>
													<uid>302bc64bde5d6875ae045702</uid>
								</result>
			<result>
			<name>松江体育中心-3号门</name>
			<location>
				<lat>31.02277</lat>
				<lng>121.238453</lng>
			</location>
							<address>乐都路276号</address>
										<telephone>(021)57724613</telephone>
										<uid>550fd5f95175bd7a931fc967</uid>
								</result>
			<result>
			<name>松江体育中心</name>
			<location>
				<lat>31.022049</lat>
				<lng>121.237126</lng>
			</location>
							<address>地铁9号线</address>
													<uid>cd613b1d238530bcea12e4cd</uid>
								</result>
			<result>
			<name>上海工程技术大学(松江校区)-体育馆</name>
			<location>
				<lat>31.061461</lat>
				<lng>121.209449</lng>
			</location>
							<address>广富林路2793上海工程技术大学松江校区</address>
													<uid>dffd631c1da72ebd38221cf0</uid>
								</result>
			<result>
			<name>松江大学城体育中心羽毛球馆</name>
			<location>
				<lat>31.052853</lat>
				<lng>121.217903</lng>
			</location>
							<address>松江区文翔路2000号(近公交大学城枢纽站)</address>
										<telephone>(021)67827272-8202</telephone>
										<uid>34e485089303a1fbd8d891da</uid>
								</result>
			<result>
			<name>易佰连锁旅店上海松江体育中心店</name>
			<location>
				<lat>31.017881</lat>
				<lng>121.234508</lng>
			</location>
							<address>上海人民北路88号</address>
										<telephone>(021)57819137</telephone>
										<uid>f1af280b0d3f2a5ef603b8fe</uid>
								</result>
	  </results>
</PlaceSearchResponse>
