<?xml version="1.0" encoding="utf-8" ?> 
<PlaceSearchResponse> 
  <status>0</status>
  <message>ok</message>
  	<total>10</total>
    <results>
			<result>
			<name>桃浦公园</name>
			<location>
				<lat>31.286545</lat>
				<lng>121.398589</lng>
			</location>
							<address>桃浦西路1018号</address>
													<uid>b7021bf82efff4fbf4e73bca</uid>
								</result>
			<result>
			<name>桃浦公园</name>
			<location>
				<lat>31.287093</lat>
				<lng>121.398571</lng>
			</location>
							<address>普陀区桃浦西路1018号</address>
													<uid>9b04b2d53c3774d115c905ca</uid>
								</result>
			<result>
			<name>桃浦公园-西门</name>
			<location>
				<lat>31.287232</lat>
				<lng>121.398547</lng>
			</location>
							<address>桃浦西路1018号</address>
													<uid>9e940aa1570217580ab93a85</uid>
								</result>
			<result>
			<name>桃浦社区体育健身俱乐部游泳馆</name>
			<location>
				<lat>31.292756</lat>
				<lng>121.348155</lng>
			</location>
							<address>嘉定区金通路380号普陀体育公园2期（近银杏路）</address>
										<telephone>15618361597</telephone>
										<uid>2ecab710c833d3c6373a7116</uid>
								</result>
			<result>
			<name>桃浦社区体育健身俱乐部游泳馆</name>
			<location>
				<lat>31.293141</lat>
				<lng>121.348198</lng>
			</location>
							<address>普陀区金通路380号普陀体育公园2期(近银杏路)</address>
													<uid>7b99704e80fd2b738705bf9d</uid>
								</result>
			<result>
			<name>桃浦全民健身活动中心游泳馆</name>
			<location>
				<lat>31.292756</lat>
				<lng>121.348155</lng>
			</location>
							<address>普陀区金通路380号普陀体育公园2期(近银杏路)</address>
										<telephone>(021)36363178,(021)36368301-8090</telephone>
										<uid>f117b1b56ce5e69b00ff2d01</uid>
								</result>
			<result>
			<name>普陀体育公园</name>
			<location>
				<lat>31.289006</lat>
				<lng>121.349706</lng>
			</location>
							<address>桃浦镇</address>
										<telephone>(021)66278110</telephone>
										<uid>637df60ab734537340afe6cb</uid>
								</result>
			<result>
			<name>普陀体育公园-西南门</name>
			<location>
				<lat>31.287525</lat>
				<lng>121.349617</lng>
			</location>
							<address>桃浦镇</address>
													<uid>8505585a3bf0a43eb21e3649</uid>
								</result>
			<result>
			<name>西可军事野战基地</name>
			<location>
				<lat>31.290295</lat>
				<lng>121.349642</lng>
			</location>
							<address>普陀区金通路158号普陀体育公园内(近地铁11号线桃浦新村站4号口)</address>
										<telephone>(021)36368134</telephone>
										<uid>723fe80ea4713d02725e801d</uid>
								</result>
			<result>
			<name>来伊份(大华梦公园之枫庭丽苑西)</name>
			<location>
				<lat>31.282356</lat>
				<lng>121.412306</lng>
			</location>
							<address>桃浦镇武威东路280号底层</address>
										<telephone>4001861777</telephone>
										<uid>d5464cf87e5dc42afca77888</uid>
								</result>
	  </results>
</PlaceSearchResponse>
