<?xml version="1.0" encoding="utf-8" ?> 
<PlaceSearchResponse> 
  <status>0</status>
  <message>ok</message>
  	<total>12</total>
    <results>
			<result>
			<name>南汇桃花村</name>
			<location>
				<lat>31.064354</lat>
				<lng>121.762114</lng>
			</location>
							<address>惠南镇北门路289号</address>
													<uid>942368582deff4ce8b2fb5ee</uid>
								</result>
			<result>
			<name>桃花村</name>
			<location>
				<lat>31.059367</lat>
				<lng>121.762643</lng>
			</location>
							<address>芦杜专线;三港专线</address>
													<uid>cdd19d94d2a0dcbc71210b59</uid>
								</result>
			<result>
			<name>南汇桃花村农家乐</name>
			<location>
				<lat>31.064562</lat>
				<lng>121.762274</lng>
			</location>
							<address>浦东新区惠南镇桃花村北门路289号（近拱极南路）</address>
										<telephone>(021)31756273</telephone>
										<uid>f5e3bcaefab1c2d85f17c3b3</uid>
								</result>
			<result>
			<name>桃花村-东北门</name>
			<location>
				<lat>31.067284</lat>
				<lng>121.762014</lng>
			</location>
							<address>北门路289号</address>
													<uid>03cd3f2788c95dbd0b69d9e9</uid>
								</result>
			<result>
			<name>南汇桃花村</name>
			<location>
				<lat>31.064562</lat>
				<lng>121.762265</lng>
			</location>
							<address>浦东新区惠南镇北门路289号</address>
										<telephone>(021)58010941</telephone>
										<uid>a210a857a9054e87aeb22a4d</uid>
								</result>
			<result>
			<name>上海南汇桃花村旅游度假酒店</name>
			<location>
				<lat>31.064562</lat>
				<lng>121.762265</lng>
			</location>
							<address>上海浦东新区北门路289号（近城永路）</address>
										<telephone>(021)58016565</telephone>
										<uid>f929e7860d00d7e1740269a2</uid>
								</result>
			<result>
			<name>上海南汇桃花村旅游服务有限公司</name>
			<location>
				<lat>31.066271</lat>
				<lng>121.762208</lng>
			</location>
							<address>惠南镇北门路289号</address>
													<uid>d44e87696e04bad74e776e3e</uid>
								</result>
			<result>
			<name>桃花节(南汇桃花村)</name>
			<location>
				<lat>31.064562</lat>
				<lng>121.762267</lng>
			</location>
							<address>惠南镇北门路289号</address>
										<telephone>(021)58024000</telephone>
										<uid>e4fcef20bfe1da2436b06cdb</uid>
								</result>
			<result>
			<name>南汇水蜜桃</name>
			<location>
				<lat>31.066248</lat>
				<lng>121.765942</lng>
			</location>
							<address>浦东新区惠南镇城北桃花村（近城北桃源民俗村）</address>
										<telephone>15000661320</telephone>
										<uid>2983c73db9e7efbdc9c3db4e</uid>
								</result>
			<result>
			<name>桃园膳府</name>
			<location>
				<lat>31.064562</lat>
				<lng>121.762265</lng>
			</location>
							<address>上海浦东新区惠南镇北门路289号南汇桃花村园内(近拱为路)</address>
										<telephone>(021)31756273</telephone>
										<uid>7a6c0eea78f43a4807fef582</uid>
								</result>
	  </results>
</PlaceSearchResponse>
