<?xml version="1.0" encoding="utf-8" ?> 
<PlaceSearchResponse> 
  <status>0</status>
  <message>ok</message>
  	<total>7</total>
    <results>
			<result>
			<name>棉织坊</name>
			<location>
				<lat>31.158922</lat>
				<lng>121.360326</lng>
			</location>
							<address>七宝镇北大街43临</address>
													<uid>d334ab232c9703aeaa175ab9</uid>
								</result>
			<result>
			<name>棉织坊</name>
			<location>
				<lat>31.158961</lat>
				<lng>121.360303</lng>
			</location>
							<address>闵行区七宝古镇北大街41号</address>
													<uid>b0b3715db29eb7dc283a9f59</uid>
								</result>
			<result>
			<name>仁昌棉纺织公司</name>
			<location>
				<lat>31.618574</lat>
				<lng>121.59855</lng>
			</location>
							<address>大新镇</address>
													<uid>5176ba99e95bd8923904b114</uid>
								</result>
			<result>
			<name>上海浩达棉纺织有限公司</name>
			<location>
				<lat>31.056195</lat>
				<lng>121.782618</lng>
			</location>
							<address>惠南镇钦公塘路888号</address>
													<uid>217e4af5f1652dd031870a7d</uid>
								</result>
			<result>
			<name>上海第十七棉纺织总厂</name>
			<location>
				<lat>31.279571</lat>
				<lng>121.565034</lng>
			</location>
							<address>杨树浦路3025号上纺物业·鑫民园区</address>
													<uid>6ed3083a8df42db52a3a9f91</uid>
								</result>
			<result>
			<name>上海棉纺织印染联合有限公司</name>
			<location>
				<lat>31.247013</lat>
				<lng>121.445845</lng>
			</location>
							<address>长寿路285号恒达大厦11层</address>
													<uid>e94f4643e7459afef60e777d</uid>
								</result>
			<result>
			<name>申达股份上海第三十六棉纺织服装厂</name>
			<location>
				<lat>31.201434</lat>
				<lng>121.71534</lng>
			</location>
							<address>新川路71</address>
													<uid>28e700f12b920500095cb37b</uid>
								</result>
	  </results>
</PlaceSearchResponse>
