<?xml version="1.0" encoding="utf-8" ?> 
<PlaceSearchResponse> 
  <status>0</status>
  <message>ok</message>
  	<total>9</total>
    <results>
			<result>
			<name>槎浦公园</name>
			<location>
				<lat>31.294761</lat>
				<lng>121.336527</lng>
			</location>
							<address>金迈路300</address>
													<uid>f60a15edf217bdedbb17e7cb</uid>
								</result>
			<result>
			<name>槎浦公园-东门</name>
			<location>
				<lat>31.294615</lat>
				<lng>121.337412</lng>
			</location>
							<address>金迈路300</address>
													<uid>bf614643fe34ae18c41b75b3</uid>
								</result>
			<result>
			<name>槎浦公园-南门</name>
			<location>
				<lat>31.293774</lat>
				<lng>121.336851</lng>
			</location>
							<address>金迈路300</address>
													<uid>3933ca0a0ad026b2c4f50d3e</uid>
								</result>
			<result>
			<name>槎浦公园南区</name>
			<location>
				<lat>31.29328</lat>
				<lng>121.337372</lng>
			</location>
							<address>金迈路303</address>
													<uid>0d331545ad113d7872210be2</uid>
								</result>
			<result>
			<name>槎浦公园(东区)</name>
			<location>
				<lat>31.293164</lat>
				<lng>121.337263</lng>
			</location>
							<address>金迈路303</address>
													<uid>1c7458b78b17656f9c09f7fc</uid>
								</result>
			<result>
			<name>槎浦公园(西区)</name>
			<location>
				<lat>31.294275</lat>
				<lng>121.336966</lng>
			</location>
							<address>金迈路300</address>
													<uid>0ca7916e46d46dc7363a71a9</uid>
								</result>
			<result>
			<name>槎浦公园(东区西北门)</name>
			<location>
				<lat>31.293481</lat>
				<lng>121.33689</lng>
			</location>
							<address>金迈路303</address>
													<uid>b0731a1ef15ac2595fd4fe67</uid>
								</result>
			<result>
			<name>槎浦公园(西区东南门)</name>
			<location>
				<lat>31.293874</lat>
				<lng>121.336917</lng>
			</location>
							<address>金迈路300</address>
													<uid>ae222d753f8b8f3e3310af3d</uid>
								</result>
			<result>
			<name>槎浦公园(西区东北门)</name>
			<location>
				<lat>31.294676</lat>
				<lng>121.337278</lng>
			</location>
							<address>金润路附近</address>
													<uid>a8ef881512c3dee8b9df8f03</uid>
								</result>
	  </results>
</PlaceSearchResponse>
