<?xml version="1.0" encoding="utf-8" ?> 
<PlaceSearchResponse> 
  <status>0</status>
  <message>ok</message>
  	<total>1563</total>
    <results>
			<result>
			<name>正大广场</name>
			<location>
				<lat>31.242691</lat>
				<lng>121.505914</lng>
			</location>
							<address>上海市浦东新区陆家嘴西路168号</address>
										<telephone>021-50470506</telephone>
										<uid>c21db9e5e371aa9a00ff2d33</uid>
								</result>
			<result>
			<name>正大广场商业中心</name>
			<location>
				<lat>31.243046</lat>
				<lng>121.50675</lng>
			</location>
							<address>浦东新区陆家嘴西路168号</address>
													<uid>c02be2025a45f0e9ce06a477</uid>
								</result>
			<result>
			<name>正大广场-南门</name>
			<location>
				<lat>31.242004</lat>
				<lng>121.505832</lng>
			</location>
							<address>陆家嘴西路168号</address>
										<telephone>(021)68877888</telephone>
										<uid>a96cc2feb1d3058baecb66f8</uid>
								</result>
			<result>
			<name>正大广场-停车场</name>
			<location>
				<lat>31.242236</lat>
				<lng>121.506952</lng>
			</location>
							<address>陆家嘴西路168号正大广场</address>
													<uid>34f68ab052bb89748f55ec1c</uid>
								</result>
			<result>
			<name>正大广场-西门</name>
			<location>
				<lat>31.24232</lat>
				<lng>121.504611</lng>
			</location>
							<address>陆家嘴西路168号</address>
										<telephone>(021)68877888</telephone>
										<uid>f1f5cac5d758749937b06cb6</uid>
								</result>
			<result>
			<name>正大广场-易初莲花停车库</name>
			<location>
				<lat>31.242351</lat>
				<lng>121.506992</lng>
			</location>
							<address>上海市浦东新区</address>
													<uid>3810c8790967578b9c09f77e</uid>
								</result>
			<result>
			<name>宜芝多(正大广场三店)</name>
			<location>
				<lat>31.242799</lat>
				<lng>121.50543</lng>
			</location>
							<address>上海浦东新区陆家嘴西路168号正大广场B2楼卜蜂莲花内(近东方明珠)</address>
										<telephone>(021)50472802</telephone>
										<uid>64ff3be1f70623a290114cd0</uid>
								</result>
			<result>
			<name>正大广场-东南门</name>
			<location>
				<lat>31.242706</lat>
				<lng>121.506902</lng>
			</location>
							<address>上海市浦东新区</address>
													<uid>25443ad3501f2863eb1e9774</uid>
								</result>
			<result>
			<name>正大广场吃泰国菜的有哪些</name>
			<location>
				<lat>31.242675</lat>
				<lng>121.505895</lng>
			</location>
							<address>正大广场</address>
													<uid>733a44cade185d23b8bd63ab</uid>
								</result>
			<result>
			<name>正大广场-北门</name>
			<location>
				<lat>31.242899</lat>
				<lng>121.505641</lng>
			</location>
							<address>陆家嘴西路168号</address>
													<uid>39d43f82b4fe0987a9059db7</uid>
								</result>
	  </results>
</PlaceSearchResponse>
