<?xml version="1.0" encoding="utf-8" ?> 
<PlaceSearchResponse> 
  <status>0</status>
  <message>ok</message>
  	<total>26</total>
    <results>
			<result>
			<name>永和公园</name>
			<location>
				<lat>31.296736</lat>
				<lng>121.438864</lng>
			</location>
							<address>原平路702临</address>
													<uid>691305231ea48f09725e80ff</uid>
								</result>
			<result>
			<name>永和公园-西门</name>
			<location>
				<lat>31.296512</lat>
				<lng>121.438286</lng>
			</location>
							<address>平原路702临</address>
													<uid>6ad02226860d3d72631c673c</uid>
								</result>
			<result>
			<name>永和公园-南门</name>
			<location>
				<lat>31.296235</lat>
				<lng>121.438565</lng>
			</location>
							<address>上海市闸北区</address>
													<uid>acfdd729671fa341fb42b203</uid>
								</result>
			<result>
			<name>永和公园-西南门</name>
			<location>
				<lat>31.296188</lat>
				<lng>121.438526</lng>
			</location>
							<address>原平路700号附近</address>
													<uid>71aa11e6ed2e69dbca09f05c</uid>
								</result>
			<result>
			<name>永和大王(公园路店)</name>
			<location>
				<lat>31.154356</lat>
				<lng>121.122252</lng>
			</location>
							<address>青浦区公园路300号农工商超市旁(公园东路外青松公路)</address>
										<telephone>(021)59726023</telephone>
										<uid>9fbfeef27eb3095cede4a51d</uid>
								</result>
			<result>
			<name>永和大王(顾村公园店)</name>
			<location>
				<lat>31.349918</lat>
				<lng>121.380324</lng>
			</location>
							<address>上海市宝山区镜泊湖路555弄1～6号万尚生活广场1层</address>
													<uid>7d5f3a0a81521f522cb908c8</uid>
								</result>
			<result>
			<name>永和大王（顾村公园店）</name>
			<location>
				<lat>31.350503</lat>
				<lng>121.391788</lng>
			</location>
							<address>宝山区沪太路4788号顾村公园2号门附近</address>
										<telephone>(021)63130388</telephone>
										<uid>23b2fbb3f69c569389b9884a</uid>
								</result>
			<result>
			<name>大华阳城花园永和新城</name>
			<location>
				<lat>31.291498</lat>
				<lng>121.434764</lng>
			</location>
							<address>阳城路283弄1～95号</address>
													<uid>7524cb4ff9a0b23504026ffe</uid>
								</result>
			<result>
			<name>永和豆浆(住友宝莲花园东店)</name>
			<location>
				<lat>31.400025</lat>
				<lng>121.493776</lng>
			</location>
							<address>宝山区牡丹江路1258号(住友宝莲花园东)</address>
										<telephone>(021)61404517</telephone>
										<uid>08f1f1f53f97c4d389db73a5</uid>
								</result>
			<result>
			<name>大华阳城花园永和新城东门</name>
			<location>
				<lat>31.289323</lat>
				<lng>121.434755</lng>
			</location>
							<address>大华阳城花园永和新城</address>
													<uid>d52831f929256eda2ffaa7a2</uid>
								</result>
	  </results>
</PlaceSearchResponse>
