<?xml version="1.0" encoding="utf-8" ?> 
<PlaceSearchResponse> 
  <status>0</status>
  <message>ok</message>
  	<total>1068</total>
    <results>
			<result>
			<name>汉口路/江西中路(路口)</name>
			<location>
				<lat>31.242004</lat>
				<lng>121.493594</lng>
			</location>
							<address>上海市黄浦区</address>
													<uid>93df0dc3a515102a892fb5a8</uid>
								</result>
			<result>
			<name>湖北路/汉口路(路口)</name>
			<location>
				<lat>31.240105</lat>
				<lng>121.486887</lng>
			</location>
							<address>上海市黄浦区</address>
													<uid>69fcd6df7518502eca2915ca</uid>
								</result>
			<result>
			<name>汉口路/四川中路(路口)</name>
			<location>
				<lat>31.242297</lat>
				<lng>121.495113</lng>
			</location>
							<address>上海市黄浦区</address>
													<uid>6113ef77d135cd158f7727a5</uid>
								</result>
			<result>
			<name>汉口路/西藏中路(路口)</name>
			<location>
				<lat>31.238847</lat>
				<lng>121.482136</lng>
			</location>
							<address>上海市黄浦区</address>
													<uid>083a55fa4e33a078256e98a8</uid>
								</result>
			<result>
			<name>汉口路/河南中路(路口)</name>
			<location>
				<lat>31.241633</lat>
				<lng>121.49196</lng>
			</location>
							<address>上海市黄浦区</address>
													<uid>25ec69fc08e5e77cc36c14a5</uid>
								</result>
			<result>
			<name>中山东一路/汉口路(路口)</name>
			<location>
				<lat>31.242645</lat>
				<lng>121.496869</lng>
			</location>
							<address>上海市黄浦区</address>
													<uid>25ec69fc3306fe7cc26c14ca</uid>
								</result>
			<result>
			<name>汉口路/山西南路(路口)</name>
			<location>
				<lat>31.24107</lat>
				<lng>121.489652</lng>
			</location>
							<address>上海市黄浦区</address>
													<uid>fa01e93758c1424b764ff1a9</uid>
								</result>
			<result>
			<name>亚马逊Z.cn网购全家汉口路店自提点</name>
			<location>
				<lat>31.238762</lat>
				<lng>121.487565</lng>
			</location>
							<address>汉口路477～479号</address>
										<telephone>021-33070831</telephone>
										<uid>27b25b1cb39777b2eddfca5f</uid>
								</result>
			<result>
			<name>汉口路/云南中路(路口)</name>
			<location>
				<lat>31.239248</lat>
				<lng>121.483359</lng>
			</location>
							<address>上海市黄浦区</address>
													<uid>1020060f5213d9a71994c6a0</uid>
								</result>
			<result>
			<name>汉口路/福建中路(路口)</name>
			<location>
				<lat>31.240391</lat>
				<lng>121.48771</lng>
			</location>
							<address>上海市黄浦区</address>
													<uid>680fb703bb2a329d8ab988a3</uid>
								</result>
	  </results>
</PlaceSearchResponse>
