<?xml version="1.0" encoding="utf-8" ?> 
<PlaceSearchResponse> 
  <status>0</status>
  <message>ok</message>
  	<total>46</total>
    <results>
			<result>
			<name>江湾体育中心</name>
			<location>
				<lat>31.313389</lat>
				<lng>121.525158</lng>
			</location>
							<address>杨浦区  国和路346号(近政衷路)</address>
													<uid>86656196b0d9a5d86168583c</uid>
								</result>
			<result>
			<name>江湾体育中心综合体育馆</name>
			<location>
				<lat>31.31332</lat>
				<lng>121.524812</lng>
			</location>
							<address>国和路346号</address>
										<telephone>(021)55225880</telephone>
										<uid>3969049a7945f9fcf03cbac0</uid>
								</result>
			<result>
			<name>江湾体育中心</name>
			<location>
				<lat>31.313389</lat>
				<lng>121.525159</lng>
			</location>
							<address>国和路346号12号看台对面</address>
										<telephone>(021)55225880,(021)56552235,(021)55226400,(021)55226420</telephone>
										<uid>b74efe8e70f54d5a4f3a59b7</uid>
								</result>
			<result>
			<name>江湾体育中心游泳馆</name>
			<location>
				<lat>31.31268</lat>
				<lng>121.52512</lng>
			</location>
							<address>上海市杨浦区上海市杨浦区国和路346号（近政立路）</address>
										<telephone>021-55226400</telephone>
										<uid>c5ddcc08563113dfd813186b</uid>
								</result>
			<result>
			<name>江湾体育中心综合体育馆</name>
			<location>
				<lat>31.313389</lat>
				<lng>121.525132</lng>
			</location>
							<address>国和路346号</address>
										<telephone>(021)55225880</telephone>
										<uid>9e7ed89f2c84a5251e5800a9</uid>
								</result>
			<result>
			<name>江湾体育馆</name>
			<location>
				<lat>31.31177</lat>
				<lng>121.521245</lng>
			</location>
							<address>淞沪路234</address>
										<telephone>4000656361</telephone>
										<uid>d9a93be0f016c8c54d554712</uid>
								</result>
			<result>
			<name>杨浦区公共自行车服务中心江湾体育中心旗舰店</name>
			<location>
				<lat>31.311137</lat>
				<lng>121.521553</lng>
			</location>
							<address>国和路346号上海市江湾体育场14号看台127号</address>
										<telephone>(021)33810286</telephone>
										<uid>6b09900a5860969b1ce999f9</uid>
								</result>
			<result>
			<name>江湾体育中心足球场</name>
			<location>
				<lat>31.312456</lat>
				<lng>121.522718</lng>
			</location>
							<address>国和路346号江湾体育馆(近政立路)</address>
													<uid>d5ea1e7343cb463fd813183e</uid>
								</result>
			<result>
			<name>傲世达乒乓球俱乐部</name>
			<location>
				<lat>31.313382</lat>
				<lng>121.525153</lng>
			</location>
							<address>杨浦区国和路346号江湾体育中心综合馆2楼(近政立路)</address>
										<telephone>13611800001</telephone>
										<uid>9ee7cc78754d306916c90564</uid>
								</result>
			<result>
			<name>傲世达乒乓球俱乐部</name>
			<location>
				<lat>31.313382</lat>
				<lng>121.525153</lng>
			</location>
							<address>杨浦区国和路346号江湾体育中心综合馆</address>
										<telephone>13611800001</telephone>
										<uid>8ee1618fbe873f069fec2b78</uid>
								</result>
	  </results>
</PlaceSearchResponse>
