<?xml version="1.0" encoding="utf-8" ?> 
<PlaceSearchResponse> 
  <status>0</status>
  <message>ok</message>
  	<total>466</total>
    <results>
			<result>
			<name>江西中路</name>
			<location>
				<lat>31.237568</lat>
				<lng>121.494865</lng>
			</location>
							<address>上海市黄浦区</address>
													<uid>e2ad741ea8a6e39141e1920e</uid>
								</result>
			<result>
			<name>滇池路/江西中路(路口)</name>
			<location>
				<lat>31.244875</lat>
				<lng>121.492713</lng>
			</location>
							<address>上海市黄浦区</address>
													<uid>2cc3c8e8d50816d74c2fdfa5</uid>
								</result>
			<result>
			<name>江西中路/江西南路(路口)</name>
			<location>
				<lat>31.237566</lat>
				<lng>121.494866</lng>
			</location>
							<address>上海市黄浦区</address>
													<uid>c8cae3a8a90b0e3f7702695d</uid>
								</result>
			<result>
			<name>江西中路/沙市二路(路口)</name>
			<location>
				<lat>31.243409</lat>
				<lng>121.493268</lng>
			</location>
							<address>上海市黄浦区</address>
													<uid>06d2dffd188339f788f15d22</uid>
								</result>
			<result>
			<name>中国电信(江西中路营业厅)</name>
			<location>
				<lat>31.242259</lat>
				<lng>121.4937</lng>
			</location>
							<address>黄浦区江西中路232号(汉口路口)</address>
										<telephone>021-63217504</telephone>
										<uid>7d5f3a0a3ef7524a2cb9085a</uid>
								</result>
			<result>
			<name>江西中路34号</name>
			<location>
				<lat>31.238299</lat>
				<lng>121.494897</lng>
			</location>
							<address>上海市黄浦区</address>
													<uid>ee8798ffcf9caac23010af3c</uid>
								</result>
			<result>
			<name>汉口路江西中路</name>
			<location>
				<lat>31.241988</lat>
				<lng>121.493061</lng>
			</location>
							<address>49路;864路</address>
													<uid>4db4af57de38a4292d4733e3</uid>
								</result>
			<result>
			<name>延安东路江西中路</name>
			<location>
				<lat>31.23725</lat>
				<lng>121.494374</lng>
			</location>
							<address>127路;145路;934路</address>
													<uid>7de3a186247282c1dc1e525a</uid>
								</result>
			<result>
			<name>上海中药行业协会(江西中路)</name>
			<location>
				<lat>31.240769</lat>
				<lng>121.494615</lng>
			</location>
							<address>江西中路170号福州大楼226、233、235、241</address>
										<telephone>(021)63234074</telephone>
										<uid>9984676833017d31441a3210</uid>
								</result>
			<result>
			<name>华东医院(市府大厦门诊部)</name>
			<location>
				<lat>31.240993</lat>
				<lng>121.493712</lng>
			</location>
							<address>黄浦区江西中路187,189号(新城饭店)</address>
										<telephone>(021)63218996</telephone>
										<uid>7d532279822f05c260180926</uid>
								</result>
	  </results>
</PlaceSearchResponse>
