<?xml version="1.0" encoding="utf-8" ?> 
<PlaceSearchResponse> 
  <status>0</status>
  <message>ok</message>
  	<total>459</total>
    <results>
			<result>
			<name>汾阳路</name>
			<location>
				<lat>31.221733</lat>
				<lng>121.462582</lng>
			</location>
							<address>上海市徐汇区</address>
													<uid>cc320c0396275777c06c14d0</uid>
								</result>
			<result>
			<name>桃江路/汾阳路(路口)</name>
			<location>
				<lat>31.215317</lat>
				<lng>121.458436</lng>
			</location>
							<address>上海市徐汇区</address>
													<uid>4fc3161a3c8383a83a13fd53</uid>
								</result>
			<result>
			<name>复兴中路/汾阳路(路口)</name>
			<location>
				<lat>31.218096</lat>
				<lng>121.460926</lng>
			</location>
							<address>上海市徐汇区</address>
													<uid>2cc3c8e8b5e236d74d2fdfd3</uid>
								</result>
			<result>
			<name>汾阳路3号</name>
			<location>
				<lat>31.220528</lat>
				<lng>121.46227</lng>
			</location>
							<address>徐汇区汾阳路3号(淮海中路)</address>
										<telephone>(021)54363297</telephone>
										<uid>9a16e5067826bcde4afc8db8</uid>
								</result>
			<result>
			<name>汾阳路19号小区</name>
			<location>
				<lat>31.219625</lat>
				<lng>121.461714</lng>
			</location>
							<address>汾阳路19号</address>
													<uid>75bae8a6aaa558d094031988</uid>
								</result>
			<result>
			<name>汾阳路112弄4号</name>
			<location>
				<lat>31.216884</lat>
				<lng>121.45996</lng>
			</location>
							<address>汾阳路110号附近</address>
													<uid>15bdb2f4df81cf0280a00c2e</uid>
								</result>
			<result>
			<name>汾阳路9弄小区</name>
			<location>
				<lat>31.219833</lat>
				<lng>121.46287</lng>
			</location>
							<address>汾阳路9弄1-17号</address>
													<uid>a2bf810f1d883b8a08f5eb6f</uid>
								</result>
			<result>
			<name>AURA(汾阳路店)</name>
			<location>
				<lat>31.217942</lat>
				<lng>121.460689</lng>
			</location>
							<address>徐汇区汾阳路64弄4号（门口在复兴中路朝西第三棵大树）(近复兴中路)</address>
										<telephone>(021)34617159</telephone>
										<uid>083a55faa2289c60256e9895</uid>
								</result>
			<result>
			<name>汾阳路9弄6号</name>
			<location>
				<lat>31.219996</lat>
				<lng>121.462506</lng>
			</location>
							<address>上海市徐汇区</address>
													<uid>0246393b3bc4dfdb9122e035</uid>
								</result>
			<result>
			<name>汾阳路9弄5号</name>
			<location>
				<lat>31.220227</lat>
				<lng>121.462572</lng>
			</location>
							<address>上海市徐汇区</address>
													<uid>398cfb68b30aab5626e0a010</uid>
								</result>
	  </results>
</PlaceSearchResponse>
