<?xml version="1.0" encoding="utf-8" ?> 
<PlaceSearchResponse> 
  <status>0</status>
  <message>ok</message>
  	<total>7</total>
    <results>
			<result>
			<name>波兰驻上海总领事馆</name>
			<location>
				<lat>31.207835</lat>
				<lng>121.454176</lng>
			</location>
							<address>建国西路618号</address>
										<telephone>(021)64339288</telephone>
										<uid>23116913a3e5baff734b87d9</uid>
								</result>
			<result>
			<name>波兰驻上海总领事馆贸易和投资促进处</name>
			<location>
				<lat>31.212846</lat>
				<lng>121.414806</lng>
			</location>
							<address>遵义路100号虹桥南丰城B座19层1906-07</address>
													<uid>e9365e7bb901f049f8f0cb1e</uid>
								</result>
			<result>
			<name>波兰共和国总领事馆</name>
			<location>
				<lat>31.208499</lat>
				<lng>121.453824</lng>
			</location>
							<address>建国西路618</address>
													<uid>77bae1cfcb07f92ad6b74e6d</uid>
								</result>
			<result>
			<name>上海仙乐旅行社有限公司</name>
			<location>
				<lat>31.208167</lat>
				<lng>121.454547</lng>
			</location>
							<address>徐汇区安亭路137号(近建国西路波兰领事馆)</address>
										<telephone>(021)64726644</telephone>
										<uid>6fddd7fdab22377c3517dced</uid>
								</result>
			<result>
			<name>上海鸿迪管道清洗疏通服务有限公司</name>
			<location>
				<lat>31.206507</lat>
				<lng>121.454202</lng>
			</location>
							<address>徐汇区建国西路28号(近波兰领事馆)(近波兰领事馆)</address>
										<telephone>(021)33906120,13818819125</telephone>
										<uid>d11e6af43a9ef39ab64f540f</uid>
								</result>
			<result>
			<name>City Star 高端婚礼定制</name>
			<location>
				<lat>31.206507</lat>
				<lng>121.454204</lng>
			</location>
							<address>徐汇区建国西路619弄28号南门1楼（近波兰领事馆）</address>
										<telephone>(021)64311037</telephone>
										<uid>12c1fbfbabfff380c62ba10e</uid>
								</result>
			<result>
			<name>City Star</name>
			<location>
				<lat>31.206507</lat>
				<lng>121.454204</lng>
			</location>
							<address>徐汇区建国西路619弄28号南门1楼(近波兰领事馆)</address>
													<uid>ce257477f12fa36095f08cd6</uid>
								</result>
	  </results>
</PlaceSearchResponse>
