<?xml version="1.0" encoding="utf-8" ?> 
<PlaceSearchResponse> 
  <status>0</status>
  <message>ok</message>
  	<total>7</total>
    <results>
			<result>
			<name>浦兴文化公园</name>
			<location>
				<lat>31.284092</lat>
				<lng>121.597157</lng>
			</location>
							<address>东陆路705</address>
													<uid>41572e00cbd580adb55f1ef0</uid>
								</result>
			<result>
			<name>浦兴文化公园</name>
			<location>
				<lat>31.284061</lat>
				<lng>121.595982</lng>
			</location>
							<address>浦东新区东陆路705号（近张扬北路）</address>
													<uid>41e18fe831610bc8f503b823</uid>
								</result>
			<result>
			<name>浦兴文化公园-西一门</name>
			<location>
				<lat>31.283891</lat>
				<lng>121.595927</lng>
			</location>
							<address>东陆路672-674附近</address>
													<uid>fc8a38d05396bf21354aaee0</uid>
								</result>
			<result>
			<name>浦兴文化公园-停车场</name>
			<location>
				<lat>31.284084</lat>
				<lng>121.595911</lng>
			</location>
							<address>上海市浦东新区</address>
													<uid>0003d624ead9f23f62685836</uid>
								</result>
			<result>
			<name>浦兴文化公园-西门</name>
			<location>
				<lat>31.283729</lat>
				<lng>121.596278</lng>
			</location>
							<address>浦兴文化公园(西二门)附近</address>
													<uid>b101871bb81751fa2811d1de</uid>
								</result>
			<result>
			<name>马里奥斯</name>
			<location>
				<lat>31.283536</lat>
				<lng>121.595791</lng>
			</location>
							<address>浦东新区东陆路682号浦兴文化公园对面（近张扬北路）</address>
										<telephone>(021)61119236</telephone>
										<uid>8d14e12bbc6b49d76ca3cc6b</uid>
								</result>
			<result>
			<name>美利达自行车（浦兴店）</name>
			<location>
				<lat>31.283536</lat>
				<lng>121.595795</lng>
			</location>
							<address>东陆路682号(近张扬北路与浦兴文化公园)</address>
										<telephone>(021)50633692,13818668364</telephone>
										<uid>4ef01d2a3e4d7a201ce99938</uid>
								</result>
	  </results>
</PlaceSearchResponse>
