<?xml version="1.0" encoding="utf-8" ?> 
<PlaceSearchResponse> 
  <status>0</status>
  <message>ok</message>
  	<total>27</total>
    <results>
			<result>
			<name>陶家湾休闲农庄</name>
			<location>
				<lat>31.011699</lat>
				<lng>121.515825</lng>
			</location>
							<address>闵行区浦江镇永南路2018号(近浦星公路)</address>
										<telephone>(021)34669990</telephone>
										<uid>a8d1968517f4cd33d8eced23</uid>
								</result>
			<result>
			<name>浦江玫瑰园</name>
			<location>
				<lat>31.047625</lat>
				<lng>121.562801</lng>
			</location>
							<address>上海市浦东新区先新路41号(近林海公路)</address>
										<telephone>(021)54849899</telephone>
										<uid>ff0c5bcb1232d49deaf85321</uid>
								</result>
			<result>
			<name>水博园休闲生态农庄</name>
			<location>
				<lat>30.992801</lat>
				<lng>121.338936</lng>
			</location>
							<address>上海市闵行区</address>
													<uid>092f74d40b872f3ff11937b4</uid>
								</result>
			<result>
			<name>天目湖贤青农家乐</name>
			<location>
				<lat>31.010391</lat>
				<lng>121.367144</lng>
			</location>
							<address>闵行区天目山旅游区农民新村84号(近天目湖)</address>
										<telephone>13775257542</telephone>
										<uid>526211476732a77bc03644d4</uid>
								</result>
			<result>
			<name>海鲨生态农庄世博观光农庄</name>
			<location>
				<lat>31.081605</lat>
				<lng>121.548211</lng>
			</location>
							<address>闵行区浦江镇联胜路110号（近沈杜路）</address>
										<telephone>(021)64113999</telephone>
										<uid>07f3c8b562de767a6340a98b</uid>
								</result>
			<result>
			<name>健农垂钓中心会所</name>
			<location>
				<lat>31.020689</lat>
				<lng>121.556944</lng>
			</location>
							<address>闵行区召泰路</address>
													<uid>631c41571e5cee1f31f71d43</uid>
								</result>
			<result>
			<name>上海美臻园农家乐有限公司</name>
			<location>
				<lat>31.253913</lat>
				<lng>121.277837</lng>
			</location>
							<address>华漕镇纪翟路纪鹤路延伸纪祥路18号</address>
										<telephone>(021)62966018</telephone>
										<uid>581524ebd098674379b55c10</uid>
								</result>
			<result>
			<name>马桥农耕文化园农家乐</name>
			<location>
				<lat>30.995301</lat>
				<lng>121.352781</lng>
			</location>
							<address>闵行区汇江路38号(近东川路)</address>
										<telephone>(021)34685005</telephone>
										<uid>43b7e8890cd1ce7358f6be67</uid>
								</result>
			<result>
			<name>盛誉田猕猴桃生态园</name>
			<location>
				<lat>31.08704</lat>
				<lng>121.571361</lng>
			</location>
							<address>上海市闵行区</address>
													<uid>db6291e6291e07e1441a32e9</uid>
								</result>
			<result>
			<name>婷婷草莓园</name>
			<location>
				<lat>31.227638</lat>
				<lng>121.266267</lng>
			</location>
							<address>纪宏路498号</address>
													<uid>cceca3748e6067f78505bf14</uid>
								</result>
	  </results>
</PlaceSearchResponse>
