<?xml version="1.0" encoding="utf-8" ?> 
<PlaceSearchResponse> 
  <status>0</status>
  <message>ok</message>
  	<total>11</total>
    <results>
			<result>
			<name>淮海路商业街</name>
			<location>
				<lat>31.226728</lat>
				<lng>121.47434</lng>
			</location>
							<address>上海市卢湾区淮海中路</address>
													<uid>cd9d05dd7dcb70af85420e64</uid>
								</result>
			<result>
			<name>淮海路商业街</name>
			<location>
				<lat>31.232849</lat>
				<lng>121.490677</lng>
			</location>
							<address>上海市淮海东路、淮海中路、淮海西路（地跨黄浦、卢湾、徐汇三区）</address>
													<uid>f4a33da92c9676093010af7c</uid>
								</result>
			<result>
			<name>步行街(港汇恒隆广场西北)</name>
			<location>
				<lat>31.201094</lat>
				<lng>121.443593</lng>
			</location>
							<address>虹桥路1号</address>
													<uid>8e04c4fac3f6ae83a204646b</uid>
								</result>
			<result>
			<name>比多罗咖啡吧</name>
			<location>
				<lat>31.209387</lat>
				<lng>121.436294</lng>
			</location>
							<address>长宁区番禺路400号上海银星皇冠假日酒店新翼1楼(徐家汇商业街)</address>
										<telephone>(021)61458888-13003</telephone>
										<uid>2a3a874f986af6d9d7851ff5</uid>
								</result>
			<result>
			<name>星光吧</name>
			<location>
				<lat>31.209395</lat>
				<lng>121.436292</lng>
			</location>
							<address>长宁区番禺路400号银星皇冠假日酒店1楼(近徐家汇商业街)</address>
										<telephone>(021)61458888-11055</telephone>
										<uid>87248d96c2f86faa2806ce14</uid>
								</result>
			<result>
			<name>艾瑞客</name>
			<location>
				<lat>31.202708</lat>
				<lng>121.428362</lng>
			</location>
							<address>上海长宁区凯旋路1580-1号1楼新淮海坊商业街内(近淮海西路)</address>
										<telephone>(021)62498100</telephone>
										<uid>af83f14892fbbe6a4afd3f75</uid>
								</result>
			<result>
			<name>乡の月</name>
			<location>
				<lat>31.209387</lat>
				<lng>121.436366</lng>
			</location>
							<address>长宁区番禺路400号银星皇冠假日酒店3楼(徐家汇商业街)</address>
										<telephone>(021)61458881</telephone>
										<uid>22e11407d102adadd5b74ecf</uid>
								</result>
			<result>
			<name>边城1803</name>
			<location>
				<lat>31.202391</lat>
				<lng>121.429094</lng>
			</location>
							<address>长宁区凯旋路1582号-5新淮海坊商业街2楼(近地铁虹桥路站)</address>
										<telephone>(021)62299195</telephone>
										<uid>7331439e9c91ff51ac31e553</uid>
								</result>
			<result>
			<name>华美国际酒店-洗手间</name>
			<location>
				<lat>31.227886</lat>
				<lng>121.488265</lng>
			</location>
							<address>上海市黄浦区西藏南路381号（会稽路口，近新天地，近淮海路商业街）</address>
													<uid>dafb8b7e81ae8dc0c26c1450</uid>
								</result>
			<result>
			<name>城市酒店（陕西南路店）-洗手间</name>
			<location>
				<lat>31.228912</lat>
				<lng>121.463407</lng>
			</location>
							<address>上海市黄浦区陕西南路5-7号（近延安中路，近上海展览中心，近淮海路商业街）</address>
													<uid>f718d9250917a71bbda240bc</uid>
								</result>
	  </results>
</PlaceSearchResponse>
