<?xml version="1.0" encoding="utf-8" ?> 
<PlaceSearchResponse> 
  <status>0</status>
  <message>ok</message>
  	<total>31</total>
    <results>
			<result>
			<name>上海浦东清真寺</name>
			<location>
				<lat>31.241579</lat>
				<lng>121.539235</lng>
			</location>
							<address>上海浦东新区源深路375号(近源深体育场)</address>
										<telephone>(021)38870518</telephone>
										<uid>f9fd6062671979060f0e6bd7</uid>
								</result>
			<result>
			<name>清真寺(福佑路)</name>
			<location>
				<lat>31.233482</lat>
				<lng>121.49523</lng>
			</location>
							<address>黄浦区福佑路378号(近丽水路)</address>
										<telephone>(021)63282135</telephone>
										<uid>669775d0665e2a5afd0eb05c</uid>
								</result>
			<result>
			<name>江湾清真寺</name>
			<location>
				<lat>31.315225</lat>
				<lng>121.522224</lng>
			</location>
							<address>政府路86</address>
													<uid>b292b3aa904a5128bf484287</uid>
								</result>
			<result>
			<name>小桃园清真寺</name>
			<location>
				<lat>31.226488</lat>
				<lng>121.4961</lng>
			</location>
							<address>复兴东路河南南路路口</address>
										<telephone>(021)63775442</telephone>
										<uid>72aa251304e40b5e067ce88f</uid>
								</result>
			<result>
			<name>清真寺(福禄街店)</name>
			<location>
				<lat>31.259099</lat>
				<lng>121.52781</lng>
			</location>
							<address>福禄街79</address>
													<uid>c5027e6d62ded8713310af0b</uid>
								</result>
			<result>
			<name>松江清真寺</name>
			<location>
				<lat>31.012155</lat>
				<lng>121.23367</lng>
			</location>
							<address>缸甏巷75</address>
										<telephone>(021)57823684</telephone>
										<uid>1eeed54653afc8f1b5147f4b</uid>
								</result>
			<result>
			<name>沪西清真寺</name>
			<location>
				<lat>31.248688</lat>
				<lng>121.440816</lng>
			</location>
							<address>普陀区常德路沪西清真寺门口（澳门路常德路）</address>
										<telephone>(021)51072788,(021)62772076</telephone>
										<uid>5211d219418800417dc87666</uid>
								</result>
			<result>
			<name>金山清真寺</name>
			<location>
				<lat>30.713364</lat>
				<lng>121.34594</lng>
			</location>
							<address>荔浦路135弄33</address>
													<uid>fc273293c24ecbb6d6851f8e</uid>
								</result>
			<result>
			<name>松江清真寺</name>
			<location>
				<lat>31.012155</lat>
				<lng>121.23367</lng>
			</location>
							<address>上海市松江区缸甏巷75号</address>
										<telephone>(021)57823684</telephone>
										<uid>4f13522ac665e680e856faa0</uid>
								</result>
			<result>
			<name>江湾清真寺</name>
			<location>
				<lat>31.315225</lat>
				<lng>121.522212</lng>
			</location>
							<address>杨浦区政府路86号</address>
													<uid>9c3d4b194bd5afc78415413a</uid>
								</result>
	  </results>
</PlaceSearchResponse>
