<?xml version="1.0" encoding="utf-8" ?> 
<PlaceSearchResponse> 
  <status>0</status>
  <message>ok</message>
  	<total>1058</total>
    <results>
			<result>
			<name>港汇恒隆广场</name>
			<location>
				<lat>31.200561</lat>
				<lng>121.443764</lng>
			</location>
							<address>上海市徐汇区虹桥路1号</address>
										<telephone>(021)64070115</telephone>
										<uid>1bf85b25d6665bbda0a93498</uid>
								</result>
			<result>
			<name>港汇恒隆广场美食</name>
			<location>
				<lat>31.201611</lat>
				<lng>121.442814</lng>
			</location>
							<address>徐汇区虹桥路1号(近恭城路)</address>
										<telephone>(021)54355529</telephone>
										<uid>e0c7810d35cf9c3addee8b16</uid>
								</result>
			<result>
			<name>港汇恒隆广场-东门</name>
			<location>
				<lat>31.201689</lat>
				<lng>121.443952</lng>
			</location>
							<address>虹桥路1号</address>
										<telephone>(021)64070111</telephone>
										<uid>2e34c8f48513fbbe3813fd0e</uid>
								</result>
			<result>
			<name>港汇恒隆广场停车库南门</name>
			<location>
				<lat>31.200391</lat>
				<lng>121.442784</lng>
			</location>
							<address>上海市徐汇区虹桥路</address>
													<uid>7dc569cb8fd578d2714b876b</uid>
								</result>
			<result>
			<name>港汇恒隆广场停车库</name>
			<location>
				<lat>31.200245</lat>
				<lng>121.443811</lng>
			</location>
							<address>徐汇区虹桥路1号港汇广场内(华山路口)</address>
													<uid>925c550fb21d1dcc5a3ac8fb</uid>
								</result>
			<result>
			<name>港汇恒隆广场-正门</name>
			<location>
				<lat>31.200577</lat>
				<lng>121.444409</lng>
			</location>
							<address>上海市徐汇区</address>
													<uid>ff35a28a7fcb5ac7f4231004</uid>
								</result>
			<result>
			<name>VEROMODA恒隆上海港汇店</name>
			<location>
				<lat>31.200716</lat>
				<lng>121.444186</lng>
			</location>
							<address>上海市长宁区虹桥路1号港汇恒隆广场4层</address>
										<telephone>(021)64477247</telephone>
										<uid>606289fda27dca54a20464d9</uid>
								</result>
			<result>
			<name>港汇广场服务式公寓</name>
			<location>
				<lat>31.201611</lat>
				<lng>121.442813</lng>
			</location>
							<address>虹桥路1号港汇恒隆广场内</address>
										<telephone>(021)64485118,(021)64070010</telephone>
										<uid>550fd5f972909e60931fc91e</uid>
								</result>
			<result>
			<name>港汇恒隆广场-东一门</name>
			<location>
				<lat>31.200731</lat>
				<lng>121.44458</lng>
			</location>
							<address>上海市徐汇区</address>
													<uid>234ab0f4b668ebd4ce04efa9</uid>
								</result>
			<result>
			<name>MINNETONKA上海港汇恒隆广场店</name>
			<location>
				<lat>31.201573</lat>
				<lng>121.443934</lng>
			</location>
							<address>上海市长宁区虹桥路1号港汇恒隆广场3层</address>
										<telephone>(021)64685115</telephone>
										<uid>19c51dfa5cf3ec46373a71f9</uid>
								</result>
	  </results>
</PlaceSearchResponse>
