<?xml version="1.0" encoding="utf-8" ?> 
<PlaceSearchResponse> 
  <status>0</status>
  <message>ok</message>
  	<total>6</total>
    <results>
			<result>
			<name>上海滨海森林公园</name>
			<location>
				<lat>30.969465</lat>
				<lng>121.91791</lng>
			</location>
							<address>浦东新区滨海镇滨海旅游度假区东大公路5366号(滨海高尔夫球场对面)</address>
										<telephone>(021)58293030</telephone>
										<uid>833c183e70fd062f43e192e3</uid>
								</result>
			<result>
			<name>上海滨海森林公园售票处</name>
			<location>
				<lat>30.978111</lat>
				<lng>121.916703</lng>
			</location>
							<address>东大公路上海滨海森林公园(西北门)附近</address>
													<uid>2497f6c49697856617b54bde</uid>
								</result>
			<result>
			<name>滨海森林公园</name>
			<location>
				<lat>30.977717</lat>
				<lng>121.910897</lng>
			</location>
							<address>浦东新区滨海镇滨海旅游度假区东大公路5366号（滨海高尔夫球场对面）</address>
										<telephone>(021)58293030</telephone>
										<uid>fddb6db8f60d444806fef5cf</uid>
								</result>
			<result>
			<name>上海滨海森林公园-北门</name>
			<location>
				<lat>30.97894</lat>
				<lng>121.91698</lng>
			</location>
							<address>东大公路5366号</address>
										<telephone>(021)58293030</telephone>
										<uid>5efa478495742c2796f08c27</uid>
								</result>
			<result>
			<name>上海滨海森林公园-南门</name>
			<location>
				<lat>30.961662</lat>
				<lng>121.920288</lng>
			</location>
							<address>上海市浦东新区</address>
													<uid>d6f3abee5a2c1e0a81288a9d</uid>
								</result>
			<result>
			<name>滨海水上餐厅</name>
			<location>
				<lat>31.384296</lat>
				<lng>121.532919</lng>
			</location>
							<address>上海市浦东新区江东路滨江森林公园旁</address>
										<telephone>(021)58646238</telephone>
										<uid>af745608903326a829fc48cb</uid>
								</result>
	  </results>
</PlaceSearchResponse>
