<?xml version="1.0" encoding="utf-8" ?> 
<PlaceSearchResponse> 
  <status>0</status>
  <message>ok</message>
  	<total>65</total>
    <results>
			<result>
			<name>滨海公园</name>
			<location>
				<lat>30.713426</lat>
				<lng>121.351561</lng>
			</location>
							<address>上海市金山区新城路16号</address>
										<telephone>(021)57931120</telephone>
										<uid>8fde79ccaa9975be95ca0731</uid>
								</result>
			<result>
			<name>三甲港海滨乐园</name>
			<location>
				<lat>31.218421</lat>
				<lng>121.77701</lng>
			</location>
							<address>浦东新区华夏东路6015号（近浦东国际机场）</address>
										<telephone>(021)68909803</telephone>
										<uid>6835e3a7fe849957e3110361</uid>
								</result>
			<result>
			<name>海滨公园</name>
			<location>
				<lat>30.712844</lat>
				<lng>121.350713</lng>
			</location>
							<address>金山区新城路16号（合浦路新城路）</address>
										<telephone>(021)57931120</telephone>
										<uid>357157255551da294302458b</uid>
								</result>
			<result>
			<name>上海滨海森林公园</name>
			<location>
				<lat>30.969465</lat>
				<lng>121.91791</lng>
			</location>
							<address>浦东新区滨海镇滨海旅游度假区东大公路5366号(滨海高尔夫球场对面)</address>
										<telephone>(021)58293030</telephone>
										<uid>833c183e70fd062f43e192e3</uid>
								</result>
			<result>
			<name>滨海公园（新城路店）</name>
			<location>
				<lat>30.712844</lat>
				<lng>121.350713</lng>
			</location>
							<address>金山区石化街道新城路16号</address>
										<telephone>(021)57931120</telephone>
										<uid>279f7e1547a6e29e09b93ab5</uid>
								</result>
			<result>
			<name>滨海花园</name>
			<location>
				<lat>30.767938</lat>
				<lng>121.372734</lng>
			</location>
							<address>红旗东路129弄151支弄</address>
													<uid>88a4677708f01ba09d95de85</uid>
								</result>
			<result>
			<name>滨海森林公园</name>
			<location>
				<lat>30.977717</lat>
				<lng>121.910897</lng>
			</location>
							<address>浦东新区滨海镇滨海旅游度假区东大公路5366号（滨海高尔夫球场对面）</address>
										<telephone>(021)58293030</telephone>
										<uid>fddb6db8f60d444806fef5cf</uid>
								</result>
			<result>
			<name>三甲港海滨乐园网络团购售票处</name>
			<location>
				<lat>31.218181</lat>
				<lng>121.776666</lng>
			</location>
							<address>上海市浦东新区华夏东路6015号(近浦东国际机场)三甲港海滨乐园内</address>
													<uid>2ef9c03560dcbec35a3ac88e</uid>
								</result>
			<result>
			<name>滨海公园-西门</name>
			<location>
				<lat>30.711982</lat>
				<lng>121.350977</lng>
			</location>
							<address>上海市金山区新城路8号</address>
													<uid>5dbcf6c610dd977a901fc9d9</uid>
								</result>
			<result>
			<name>滨海公园-小卖部</name>
			<location>
				<lat>30.712634</lat>
				<lng>121.351355</lng>
			</location>
							<address>上海市金山区新城路16号滨海公园内</address>
													<uid>37a48effc599c00525d2bb33</uid>
								</result>
	  </results>
</PlaceSearchResponse>
