<?xml version="1.0" encoding="utf-8" ?> 
<PlaceSearchResponse> 
  <status>0</status>
  <message>ok</message>
  	<total>44</total>
    <results>
			<result>
			<name>滨海旅游度假区</name>
			<location>
				<lat>31.012271</lat>
				<lng>121.876648</lng>
			</location>
							<address>通源西路附近</address>
													<uid>edbfcee0f5fe1d187c29bddd</uid>
								</result>
			<result>
			<name>中共滨海旅游度假区工作委员会</name>
			<location>
				<lat>31.012379</lat>
				<lng>121.875121</lng>
			</location>
							<address>通源西路2号附近</address>
													<uid>62f43c882e6566f3ab0dd856</uid>
								</result>
			<result>
			<name>滨海旅游度假区</name>
			<location>
				<lat>31.014399</lat>
				<lng>121.898171</lng>
			</location>
							<address>上海市南汇区</address>
										<telephone>(021)58058411</telephone>
										<uid>42e92361705911ff22f0173e</uid>
								</result>
			<result>
			<name>滨海旅游度假区管理委员会</name>
			<location>
				<lat>31.012387</lat>
				<lng>121.87513</lng>
			</location>
							<address>滨海通源西路1号</address>
													<uid>6e2732373cb0c2ff931fc9b2</uid>
								</result>
			<result>
			<name>滨海旅游度假区卫生院</name>
			<location>
				<lat>31.01265</lat>
				<lng>121.873917</lng>
			</location>
							<address>上海市南汇滨海旅游度假区</address>
										<telephone>021-58058995</telephone>
										<uid>a948847a11a0143ed2f49e8f</uid>
								</result>
			<result>
			<name>南汇滨海旅游度假区管委会</name>
			<location>
				<lat>31.012434</lat>
				<lng>121.875206</lng>
			</location>
							<address>通源西路1号</address>
										<telephone>(021)55805829</telephone>
										<uid>7095cc431f54fc2104026f24</uid>
								</result>
			<result>
			<name>滨海森林公园</name>
			<location>
				<lat>30.977717</lat>
				<lng>121.910897</lng>
			</location>
							<address>浦东新区滨海镇滨海旅游度假区东大公路5366号（滨海高尔夫球场对面）</address>
										<telephone>(021)58293030</telephone>
										<uid>fddb6db8f60d444806fef5cf</uid>
								</result>
			<result>
			<name>滨海高尔夫俱乐部</name>
			<location>
				<lat>30.997329</lat>
				<lng>121.904056</lng>
			</location>
							<address>滨海旅游度假区东大公路5333号</address>
										<telephone>(021)38001888</telephone>
										<uid>bc4e0b6a86d0289f16c90540</uid>
								</result>
			<result>
			<name>滨海高尔夫俱乐部</name>
			<location>
				<lat>30.977763</lat>
				<lng>121.910707</lng>
			</location>
							<address>浦东新区滨海旅游度假区东大公路5333弄（近A30）</address>
										<telephone>(021)38001888</telephone>
										<uid>9b0c4a8462d9d7e34f3a5968</uid>
								</result>
			<result>
			<name>上海滨海森林公园</name>
			<location>
				<lat>30.969465</lat>
				<lng>121.91791</lng>
			</location>
							<address>浦东新区滨海镇滨海旅游度假区东大公路5366号(滨海高尔夫球场对面)</address>
										<telephone>(021)58293030</telephone>
										<uid>833c183e70fd062f43e192e3</uid>
								</result>
	  </results>
</PlaceSearchResponse>
