<?xml version="1.0" encoding="utf-8" ?> 
<PlaceSearchResponse> 
  <status>0</status>
  <message>ok</message>
  	<total>12</total>
    <results>
			<result>
			<name>环球奥莱斯购物公园</name>
			<location>
				<lat>30.914929</lat>
				<lng>121.023252</lng>
			</location>
							<address>上海市金山区朱枫公路8678弄7175号</address>
										<telephone>(021)51368888</telephone>
										<uid>bf29b70250c370e708b93aa0</uid>
								</result>
			<result>
			<name>奥特莱斯环球购物公园</name>
			<location>
				<lat>30.914929</lat>
				<lng>121.023252</lng>
			</location>
							<address>朱枫公路1199弄</address>
										<telephone>(021)51368888</telephone>
										<uid>f3c2373c907acd2cd32dd6b2</uid>
								</result>
			<result>
			<name>福畅环球美食海鲜(长风店)</name>
			<location>
				<lat>31.229051</lat>
				<lng>121.401139</lng>
			</location>
							<address>上海普陀区大渡河路196号长风公园景畔广场4楼</address>
										<telephone>(021)62187818</telephone>
										<uid>f486398164f76397b74f54fe</uid>
								</result>
			<result>
			<name>福乐佳超市(宝翔路)</name>
			<location>
				<lat>31.318642</lat>
				<lng>121.324277</lng>
			</location>
							<address>环球乐园688</address>
													<uid>ecf64a10a7c80582fbdc8518</uid>
								</result>
			<result>
			<name>乐贝尼主题乐园</name>
			<location>
				<lat>31.238801</lat>
				<lng>121.418755</lng>
			</location>
							<address>中山北路3300号（月星环球港内）B1楼乐购内地铁：3号线，4号线，11号，13号线直达</address>
										<telephone>18916489206</telephone>
										<uid>f67e52cae1c0c5c5130daad7</uid>
								</result>
			<result>
			<name>赛尔号“寻宝大冒险”亲子嘉年华</name>
			<location>
				<lat>31.241664</lat>
				<lng>121.419922</lng>
			</location>
							<address>上海环球港4F演绎空间普陀区中山北路3300号(近宁夏路、金沙江路)</address>
										<telephone>(021)60538727</telephone>
										<uid>d896058e2d5b7c5a89f15dbe</uid>
								</result>
			<result>
			<name>上海涅刺青</name>
			<location>
				<lat>31.245006</lat>
				<lng>121.411494</lng>
			</location>
							<address>普陀区兰溪路145号安天大厦1417室(环球港，长风公园地铁11号线枫桥路站)</address>
										<telephone>15000840961</telephone>
										<uid>c171b359e0882b3e6ca3cccc</uid>
								</result>
			<result>
			<name>傲圣会展服务</name>
			<location>
				<lat>31.233004</lat>
				<lng>121.417885</lng>
			</location>
							<address>普陀区中山北路3856弄2号中环大厦5A16室(近华师大,环球港,中山公园)</address>
										<telephone>(021)52518204</telephone>
										<uid>5367749d6c6e66c1932ca3bf</uid>
								</result>
			<result>
			<name>咕噜咕噜轮滑俱乐部(月星环球港分部)</name>
			<location>
				<lat>31.237959</lat>
				<lng>121.417975</lng>
			</location>
							<address>普陀区中山北路3300号月星环球港B2楼中央广场</address>
										<telephone>15921878004</telephone>
										<uid>dad9346de0c75b7d4bcc4abd</uid>
								</result>
			<result>
			<name>Love Movie Club</name>
			<location>
				<lat>31.233004</lat>
				<lng>121.417892</lng>
			</location>
							<address>普陀区中山北路3856弄2号中环大厦2502室(月星环球港、华师大斜对面，中山公园)</address>
										<telephone>18117198931</telephone>
										<uid>4a924396e344cb25a21de91b</uid>
								</result>
	  </results>
</PlaceSearchResponse>
