<?xml version="1.0" encoding="utf-8" ?> 
<PlaceSearchResponse> 
  <status>0</status>
  <message>ok</message>
  	<total>8</total>
    <results>
			<result>
			<name>白鹤草莓园</name>
			<location>
				<lat>31.24229</lat>
				<lng>121.106461</lng>
			</location>
							<address>上海市青浦区红旗村胜利路188号</address>
										<telephone>021-69401985</telephone>
										<uid>91adf128009664f495f08cfa</uid>
								</result>
			<result>
			<name>白鹤镇草莓园</name>
			<location>
				<lat>31.274239</lat>
				<lng>121.122841</lng>
			</location>
							<address>青浦区青浦区白鹤镇金长村173号</address>
										<telephone>(021)39804920</telephone>
										<uid>5d9921711d32dd7cf603b81a</uid>
								</result>
			<result>
			<name>相聚草莓园</name>
			<location>
				<lat>31.275921</lat>
				<lng>121.105857</lng>
			</location>
							<address>上海青浦区白鹤赵屯五里乌咀5号近启圣公路</address>
										<telephone>(021)59217114,13816366047</telephone>
										<uid>0beaa5b8a50d0988f7e73b7c</uid>
								</result>
			<result>
			<name>小彭草莓园</name>
			<location>
				<lat>31.265381</lat>
				<lng>121.092388</lng>
			</location>
							<address>青浦区白鹤镇赵屯村古浦罗浦20号(赵屯卫生院、新赵路和建屯路相交口)</address>
										<telephone>(021)59217099,13651644423</telephone>
										<uid>1127282f2cb49df69fe321aa</uid>
								</result>
			<result>
			<name>老杨草莓园</name>
			<location>
				<lat>31.267495</lat>
				<lng>121.093613</lng>
			</location>
							<address>白鹤镇赵屯村罗浦11号</address>
										<telephone>18964354213</telephone>
										<uid>939087644e19da229868b44d</uid>
								</result>
			<result>
			<name>江大姐草莓园</name>
			<location>
				<lat>31.270165</lat>
				<lng>121.089513</lng>
			</location>
							<address>青浦区白鹤镇赵屯村古浦钱家宅18号（近新赵路浦屯路）</address>
										<telephone>(021)59217088</telephone>
										<uid>d1835ea0112f9c032fe67bc6</uid>
								</result>
			<result>
			<name>乔家草莓园</name>
			<location>
				<lat>31.278166</lat>
				<lng>121.119889</lng>
			</location>
							<address>青浦区白鹤镇金项村金长379号(近中油白鹤石油燃气公司)</address>
										<telephone>13817299090</telephone>
										<uid>ddfb238b580c806ce31103e4</uid>
								</result>
			<result>
			<name>金乡春宴农庄</name>
			<location>
				<lat>31.274918</lat>
				<lng>121.112482</lng>
			</location>
							<address>青浦区白鹤镇金项村234号(近永胜草莓园)</address>
										<telephone>(021)39804194</telephone>
										<uid>962715d676009377441a32d3</uid>
								</result>
	  </results>
</PlaceSearchResponse>
