<?xml version="1.0" encoding="utf-8" ?> 
<PlaceSearchResponse> 
  <status>0</status>
  <message>ok</message>
  	<total>9</total>
    <results>
			<result>
			<name>白金湾广场</name>
			<location>
				<lat>31.25683</lat>
				<lng>121.512897</lng>
			</location>
							<address>海平路18号A、B座（近公平路）</address>
										<telephone>(021)65359999</telephone>
										<uid>50030c1b30298f7aadcb6697</uid>
								</result>
			<result>
			<name>白金湾广场-f楼停车场</name>
			<location>
				<lat>31.255866</lat>
				<lng>121.512648</lng>
			</location>
							<address>上海市虹口区</address>
													<uid>618848bd097a7d312102629c</uid>
								</result>
			<result>
			<name>白金湾广场F楼</name>
			<location>
				<lat>31.255997</lat>
				<lng>121.512968</lng>
			</location>
							<address>海平路18号</address>
										<telephone>(021)65359999</telephone>
										<uid>42664584a12527274d2fdf28</uid>
								</result>
			<result>
			<name>白金湾广场车库</name>
			<location>
				<lat>31.25646</lat>
				<lng>121.512259</lng>
			</location>
							<address>东大名路948</address>
													<uid>53074e9bbde5bb0115c90590</uid>
								</result>
			<result>
			<name>白金湾广场地下车库</name>
			<location>
				<lat>31.25673</lat>
				<lng>121.512411</lng>
			</location>
							<address>虹口区东大名路948号</address>
										<telephone>(021)65351188</telephone>
										<uid>458178b1c9576550d4851f60</uid>
								</result>
			<result>
			<name>白金湾广场-停车场</name>
			<location>
				<lat>31.25646</lat>
				<lng>121.512258</lng>
			</location>
							<address>东大名路948</address>
													<uid>79928cc57e264b040ab93adf</uid>
								</result>
			<result>
			<name>中国移动特约直销店(白金湾广场北)</name>
			<location>
				<lat>31.257787</lat>
				<lng>121.512556</lng>
			</location>
							<address>虹口区公平路199号(白金湾广场北)</address>
													<uid>fe262cf01e9cbd606b49f3fa</uid>
								</result>
			<result>
			<name>上海祥谷钢结构工程有限公司</name>
			<location>
				<lat>31.25595</lat>
				<lng>121.512942</lng>
			</location>
							<address>上海市东大名路948号(白金湾广场)16楼</address>
										<telephone>(021)86-21-55122931</telephone>
										<uid>4c2de33622a0964a6da3cc4f</uid>
								</result>
			<result>
			<name>荣宝斋</name>
			<location>
				<lat>31.256537</lat>
				<lng>121.512672</lng>
			</location>
							<address>上海市虹口区东大名路948号白金湾广场15楼</address>
										<telephone>(021)65867799</telephone>
										<uid>855127655f6be19ded74f8b1</uid>
								</result>
	  </results>
</PlaceSearchResponse>
