<?xml version="1.0" encoding="utf-8" ?> 
<PlaceSearchResponse> 
  <status>0</status>
  <message>ok</message>
  	<total>108</total>
    <results>
			<result>
			<name>皋兰路</name>
			<location>
				<lat>31.222929</lat>
				<lng>121.47216</lng>
			</location>
							<address>上海市卢湾区</address>
													<uid>5566deae9ed538e28415414a</uid>
								</result>
			<result>
			<name>思南路/皋兰路(路口)</name>
			<location>
				<lat>31.223215</lat>
				<lng>121.473254</lng>
			</location>
							<address>上海市卢湾区</address>
													<uid>181653343a57e905fb2d612f</uid>
								</result>
			<result>
			<name>皋兰路/瑞金二路(路口)</name>
			<location>
				<lat>31.22259</lat>
				<lng>121.471038</lng>
			</location>
							<address>上海市卢湾区</address>
													<uid>669775d0f25b5e5afc0eb0a3</uid>
								</result>
			<result>
			<name>皋兰路9号</name>
			<location>
				<lat>31.223061</lat>
				<lng>121.472905</lng>
			</location>
							<address>皋兰路9号</address>
													<uid>c9fa303556483a7ce50738ef</uid>
								</result>
			<result>
			<name>皋兰路19号</name>
			<location>
				<lat>31.222837</lat>
				<lng>121.472138</lng>
			</location>
							<address>皋兰路19号</address>
													<uid>106108b847576eda31870a26</uid>
								</result>
			<result>
			<name>皋兰路24号</name>
			<location>
				<lat>31.222844</lat>
				<lng>121.471732</lng>
			</location>
							<address>皋兰路24号</address>
													<uid>6d5693f59ffbadfaa4c75620</uid>
								</result>
			<result>
			<name>兜率宫(皋兰路店)</name>
			<location>
				<lat>31.223014</lat>
				<lng>121.472336</lng>
			</location>
							<address>卢湾区皋兰路18号1楼(近思南路)</address>
													<uid>850815e17e291d8243e19241</uid>
								</result>
			<result>
			<name>希欧酒吧(皋兰路店)</name>
			<location>
				<lat>31.22347</lat>
				<lng>121.473869</lng>
			</location>
							<address>卢湾区皋兰路2号甲（思南路进复兴公园右转）</address>
										<telephone>13482037218</telephone>
										<uid>80666d3be97441dbd22dd659</uid>
								</result>
			<result>
			<name>上海市第四聋校(皋兰路)</name>
			<location>
				<lat>31.222536</lat>
				<lng>121.471279</lng>
			</location>
							<address>卢湾区皋兰路31号</address>
										<telephone>(021)63288988</telephone>
										<uid>dffd631c1a4f2fbd39221c88</uid>
								</result>
			<result>
			<name>Kinloch Coffee(皋兰路店)</name>
			<location>
				<lat>31.223199</lat>
				<lng>121.472717</lng>
			</location>
							<address>上海卢湾区皋兰路16号(近思南路)</address>
										<telephone>(021)33063599</telephone>
										<uid>6113ef772849f40d8f7727b6</uid>
								</result>
	  </results>
</PlaceSearchResponse>
