<?xml version="1.0" encoding="utf-8" ?> 
<PlaceSearchResponse> 
  <status>0</status>
  <message>ok</message>
  	<total>22</total>
    <results>
			<result>
			<name>福泉山</name>
			<location>
				<lat>31.206414</lat>
				<lng>121.183726</lng>
			</location>
							<address>上海市青浦区福全山路重固乡钱家经村</address>
										<telephone>(021)59785515,(021)59785515</telephone>
										<uid>9d15d33504fdfed51d1d1169</uid>
								</result>
			<result>
			<name>上海福泉山留园(东北门)</name>
			<location>
				<lat>31.17672</lat>
				<lng>121.188779</lng>
			</location>
							<address>致富路附近</address>
													<uid>dc1ac0258cf61df48f1a89ad</uid>
								</result>
			<result>
			<name>福泉山留园</name>
			<location>
				<lat>31.176288</lat>
				<lng>121.188725</lng>
			</location>
							<address>郏一村215</address>
										<telephone>(021)59783114</telephone>
										<uid>4642844a623cc3d8c8fa5fb2</uid>
								</result>
			<result>
			<name>福泉山（招呼站）</name>
			<location>
				<lat>31.194079</lat>
				<lng>121.177337</lng>
			</location>
							<address>青凤徐专线</address>
													<uid>67d306a67a065527dcee8bfb</uid>
								</result>
			<result>
			<name>福泉山园区路</name>
			<location>
				<lat>31.196577</lat>
				<lng>121.194574</lng>
			</location>
							<address>上海市青浦区</address>
													<uid>b788aab091be753e06026f06</uid>
								</result>
			<result>
			<name>福泉山广场</name>
			<location>
				<lat>31.206553</lat>
				<lng>121.183825</lng>
			</location>
							<address>福泉山路658</address>
										<telephone>(021)59785515</telephone>
										<uid>f5e3bcae4d7771bc5e17c30c</uid>
								</result>
			<result>
			<name>福泉山园区（招呼站）</name>
			<location>
				<lat>31.196402</lat>
				<lng>121.194023</lng>
			</location>
							<address>青凤徐专线</address>
													<uid>410828e3505a16afe8e58254</uid>
								</result>
			<result>
			<name>福泉山停车场</name>
			<location>
				<lat>31.2067</lat>
				<lng>121.183805</lng>
			</location>
							<address>上海市青浦区</address>
													<uid>dc03192ca83266457bf796ee</uid>
								</result>
			<result>
			<name>福泉山园区路/赵重路(路口)</name>
			<location>
				<lat>31.19063</lat>
				<lng>121.190551</lng>
			</location>
							<address>上海市青浦区</address>
													<uid>3104ebc8a9b2230e9e9d6855</uid>
								</result>
			<result>
			<name>福泉山园区路/北青公路(路口)</name>
			<location>
				<lat>31.196584</lat>
				<lng>121.194578</lng>
			</location>
							<address>上海市青浦区</address>
													<uid>e6ee2fd2fb5391492b11d1e8</uid>
								</result>
	  </results>
</PlaceSearchResponse>
