<?xml version="1.0" encoding="utf-8" ?> 
<PlaceSearchResponse> 
  <status>0</status>
  <message>ok</message>
  	<total>1431</total>
    <results>
			<result>
			<name>绿地东海岸国际广场</name>
			<location>
				<lat>31.1889</lat>
				<lng>121.705649</lng>
			</location>
							<address>川沙路5558弄6号(翔川路口)</address>
													<uid>9fdcdc819a38165ead080fab</uid>
								</result>
			<result>
			<name>绿地广场</name>
			<location>
				<lat>31.121245</lat>
				<lng>121.393566</lng>
			</location>
							<address>广通路18号（莘建东路口）</address>
													<uid>79d17667991d0e8449fd3f7b</uid>
								</result>
			<result>
			<name>绿地伯顿广场</name>
			<location>
				<lat>31.022322</lat>
				<lng>121.253014</lng>
			</location>
							<address>上海市松江区荣乐东路2369号</address>
										<telephone>(021)57742277</telephone>
										<uid>b533ea4aeadd953f4e6d468a</uid>
								</result>
			<result>
			<name>绿地·公园广场</name>
			<location>
				<lat>31.350665</lat>
				<lng>121.378915</lng>
			</location>
							<address>上海市宝山区陆翔路111号</address>
													<uid>bd5046e8ef4dc93fd72ce20f</uid>
								</result>
			<result>
			<name>绿地翡翠国际广场</name>
			<location>
				<lat>30.924177</lat>
				<lng>121.479525</lng>
			</location>
							<address>解放东路1018弄</address>
										<telephone>(021)31105000-2012</telephone>
										<uid>c7eca12b86cb9b4ae115f911</uid>
								</result>
			<result>
			<name>绿地金御广场</name>
			<location>
				<lat>31.094632</lat>
				<lng>121.346211</lng>
			</location>
							<address>上海市松江区新南路959号</address>
										<telephone>(021)37633856</telephone>
										<uid>ba49c374f4d78f98dbeced60</uid>
								</result>
			<result>
			<name>绿地北郊广场</name>
			<location>
				<lat>31.364187</lat>
				<lng>121.384301</lng>
			</location>
							<address>顾村镇沪太路5255号（北至宝安公路南至顾太路）</address>
										<telephone>(021)66025858</telephone>
										<uid>d5f93c0ecf4d7022eddfca17</uid>
								</result>
			<result>
			<name>绿地科技岛广场</name>
			<location>
				<lat>31.121995</lat>
				<lng>121.393805</lng>
			</location>
							<address>闵行区广通路18号(莘建东路口)</address>
										<telephone>(021)51177115</telephone>
										<uid>c8c366d417e49f72128824a6</uid>
								</result>
			<result>
			<name>龙船绿地广场</name>
			<location>
				<lat>31.420296</lat>
				<lng>121.353205</lng>
			</location>
							<address>上海市宝山区市一路</address>
													<uid>e93761f6bd73af72223bf21a</uid>
								</result>
			<result>
			<name>绿地东海岸国际广场商业</name>
			<location>
				<lat>31.18917</lat>
				<lng>121.706002</lng>
			</location>
							<address>上海市浦东新区川沙路</address>
										<telephone>021-58909999</telephone>
										<uid>7cb4c832c1e4abc31576434f</uid>
								</result>
	  </results>
</PlaceSearchResponse>
