<?xml version="1.0" encoding="utf-8" ?> 
<PlaceSearchResponse> 
  <status>0</status>
  <message>ok</message>
  	<total>27</total>
    <results>
			<result>
			<name>美国总领事馆</name>
			<location>
				<lat>31.215085</lat>
				<lng>121.454072</lng>
			</location>
							<address>徐汇区淮海中路1469号(乌鲁木齐南路)</address>
										<telephone>(021)64336880</telephone>
										<uid>75036835f316d3d15e0d022e</uid>
								</result>
			<result>
			<name>伊势丹8楼美国领事馆</name>
			<location>
				<lat>31.235034</lat>
				<lng>121.463923</lng>
			</location>
							<address>静安区南京西路1038号8楼</address>
													<uid>a36fcee2701d3fec36b06ca8</uid>
								</result>
			<result>
			<name>美国夏威夷毛伊咖啡馆</name>
			<location>
				<lat>31.213201</lat>
				<lng>121.47063</lng>
			</location>
							<address>卢湾区泰康路248弄田子坊33号(近瑞金二路)</address>
													<uid>19dca550f8307f0846e2744d</uid>
								</result>
			<result>
			<name>美国国家插画博物馆</name>
			<location>
				<lat>31.253874</lat>
				<lng>121.455157</lng>
			</location>
							<address>莫干山路50号上海创意产业集聚区3层</address>
													<uid>ba7352a340013e41dc1e521f</uid>
								</result>
			<result>
			<name>美国高等教育资源图书馆</name>
			<location>
				<lat>31.220219</lat>
				<lng>121.449773</lng>
			</location>
							<address>徐汇区安福路201、201-2号</address>
													<uid>9f97b1c5bfb2a778b64f5440</uid>
								</result>
			<result>
			<name>美国夏威夷毛伊咖啡馆</name>
			<location>
				<lat>31.213904</lat>
				<lng>121.475817</lng>
			</location>
							<address>卢湾区泰康路248弄田子坊33号(近瑞金二路)</address>
													<uid>c5ddcc08570b10dfd813180d</uid>
								</result>
			<result>
			<name>美国领事馆签证处</name>
			<location>
				<lat>31.234833</lat>
				<lng>121.463158</lng>
			</location>
							<address>静安区南京西路1038号梅龙镇广场8楼（近江宁路）</address>
										<telephone>4008872333</telephone>
										<uid>cd213f495540c0cd6140a9cc</uid>
								</result>
			<result>
			<name>美国领事馆签证处</name>
			<location>
				<lat>31.23569</lat>
				<lng>121.463501</lng>
			</location>
							<address>静安区南京西路1038号梅龙镇广场8楼(近江宁路)</address>
													<uid>4e963e7da9b42adc871541a6</uid>
								</result>
			<result>
			<name>美国贝尔汽车生活馆</name>
			<location>
				<lat>31.277241</lat>
				<lng>121.479865</lng>
			</location>
							<address>虹口区花园路128号</address>
													<uid>f5e3bcae4eee76bc5f17c385</uid>
								</result>
			<result>
			<name>美国驻上海总领事馆领事处</name>
			<location>
				<lat>31.23569</lat>
				<lng>121.463501</lng>
			</location>
							<address>南京西路1038号梅龙镇商厦8层</address>
													<uid>a6bd1eb74d33ede7223bf2b5</uid>
								</result>
	  </results>
</PlaceSearchResponse>
