<?xml version="1.0" encoding="utf-8" ?> 
<PlaceSearchResponse> 
  <status>0</status>
  <message>ok</message>
  	<total>21</total>
    <results>
			<result>
			<name>美琪大戏院</name>
			<location>
				<lat>31.235659</lat>
				<lng>121.462407</lng>
			</location>
							<address>静安区江宁路66号美琪大戏院内(近奉贤路)</address>
										<telephone>(021)62173311</telephone>
										<uid>881a28e7ece6c546f842b289</uid>
								</result>
			<result>
			<name>美琪大戏院售票处</name>
			<location>
				<lat>31.235759</lat>
				<lng>121.462308</lng>
			</location>
							<address>江宁路66-1</address>
										<telephone>(021)62173311,(021)62472010</telephone>
										<uid>6d243af334597f2b095cb3a3</uid>
								</result>
			<result>
			<name>美琪大剧院寄包处</name>
			<location>
				<lat>31.235651</lat>
				<lng>121.462411</lng>
			</location>
							<address>静安区江宁路66号美琪大戏院边(近南京西路)</address>
													<uid>ddd8b01979773fafadcb66f4</uid>
								</result>
			<result>
			<name>烧烤摊</name>
			<location>
				<lat>31.253627</lat>
				<lng>121.486151</lng>
			</location>
							<address>静安区江宁路烈火游戏房门口(美琪大戏院对面)</address>
										<telephone>13818253171</telephone>
										<uid>35debf298872235da6da3948</uid>
								</result>
			<result>
			<name>鑫食尚</name>
			<location>
				<lat>31.235559</lat>
				<lng>121.462048</lng>
			</location>
							<address>上海静安区江宁路77号恒顺大厦7楼(美琪大戏院对面)</address>
										<telephone>(021)52285870</telephone>
										<uid>66b01a2726fd7bb7da2f284a</uid>
								</result>
			<result>
			<name>水煮鱼香</name>
			<location>
				<lat>31.235651</lat>
				<lng>121.462411</lng>
			</location>
							<address>静安区江宁路66号美琪大戏院北楼（近奉贤路）</address>
										<telephone>(021)62179898</telephone>
										<uid>850815e17e2e1d8243e19248</uid>
								</result>
			<result>
			<name>绿杨村外卖部</name>
			<location>
				<lat>31.235559</lat>
				<lng>121.462057</lng>
			</location>
							<address>静安区江宁路77号美琪大戏院对面(近奉贤路)</address>
										<telephone>(021)62537221</telephone>
										<uid>e2c734e41d152d4414a1909f</uid>
								</result>
			<result>
			<name>隆陇KTV</name>
			<location>
				<lat>31.235651</lat>
				<lng>121.462411</lng>
			</location>
							<address>静安区江宁路77号美琪大戏院6楼（近奉贤路）</address>
													<uid>a8c970a5d8a6806336b06ce8</uid>
								</result>
			<result>
			<name>Min舞</name>
			<location>
				<lat>31.235427</lat>
				<lng>121.461623</lng>
			</location>
							<address>静安区江宁路81号5楼（美琪大戏院对面）</address>
										<telephone>(021)62671031</telephone>
										<uid>72e49b8efcb5d642f7b9161b</uid>
								</result>
			<result>
			<name>粤西庭</name>
			<location>
				<lat>31.235427</lat>
				<lng>121.461623</lng>
			</location>
							<address>静安区江宁路81号（美琪大戏院对面）</address>
										<telephone>(021)52289937,(021)52289039</telephone>
										<uid>988a468e2eccbe8cd518b72f</uid>
								</result>
	  </results>
</PlaceSearchResponse>
