<?xml version="1.0" encoding="utf-8" ?> 
<PlaceSearchResponse> 
  <status>0</status>
  <message>ok</message>
  	<total>381</total>
    <results>
			<result>
			<name>同济联合广场</name>
			<location>
				<lat>31.287201</lat>
				<lng>121.514728</lng>
			</location>
							<address>上海杨浦四平路1388-1398号</address>
										<telephone>(021)65023300</telephone>
										<uid>31f9101b26dad3b826e0a023</uid>
								</result>
			<result>
			<name>新梅联合广场写字楼</name>
			<location>
				<lat>31.23508</lat>
				<lng>121.522951</lng>
			</location>
							<address>上海浦东新区浦东南路999号</address>
										<telephone>(021)51341888</telephone>
										<uid>3c0ea7c506030de2fbf0cbf8</uid>
								</result>
			<result>
			<name>新梅联合广场(上海新梅万豪行政公寓西南)</name>
			<location>
				<lat>31.235497</lat>
				<lng>121.522812</lng>
			</location>
							<address>上海市浦东新区浦东南路999号</address>
										<telephone>(021)51341888,(021)60456288</telephone>
										<uid>a7c56ee051da45aaa3acc4c2</uid>
								</result>
			<result>
			<name>新梅联合广场-停车场</name>
			<location>
				<lat>31.23491</lat>
				<lng>121.522572</lng>
			</location>
							<address>浦东南路999号新梅联合广场内(近商城路)</address>
													<uid>f51100888695c0a32202626d</uid>
								</result>
			<result>
			<name>新梅联合广场</name>
			<location>
				<lat>31.235443</lat>
				<lng>121.522785</lng>
			</location>
							<address>浦东新区浦东南路999号新梅联合广场内（近商城路）</address>
										<telephone>(021)60456288</telephone>
										<uid>9f23889e2fda1a11f50e777f</uid>
								</result>
			<result>
			<name>新梅联合广场东门</name>
			<location>
				<lat>31.235273</lat>
				<lng>121.52299</lng>
			</location>
							<address>浦东南路999号</address>
													<uid>eef753c7710304afdc1e520b</uid>
								</result>
			<result>
			<name>同济联合广场D楼</name>
			<location>
				<lat>31.286923</lat>
				<lng>121.514848</lng>
			</location>
							<address>彰武路50号</address>
													<uid>6729f43956a57219ab059d0f</uid>
								</result>
			<result>
			<name>同济联合广场C楼</name>
			<location>
				<lat>31.286977</lat>
				<lng>121.51404</lng>
			</location>
							<address>四平路1388号</address>
													<uid>9f827565e607dd376849f3ef</uid>
								</result>
			<result>
			<name>新梅联合广场南门</name>
			<location>
				<lat>31.234756</lat>
				<lng>121.522662</lng>
			</location>
							<address>浦东南路999号</address>
													<uid>ad578c36a7d1622688db7392</uid>
								</result>
			<result>
			<name>同济联合广场车库</name>
			<location>
				<lat>31.286692</lat>
				<lng>121.514792</lng>
			</location>
							<address>彰武路63号同济联合广场</address>
													<uid>9cddee0fa68b75f06b49f3c8</uid>
								</result>
	  </results>
</PlaceSearchResponse>
