<?xml version="1.0" encoding="utf-8" ?> 
<PlaceSearchResponse> 
  <status>0</status>
  <message>ok</message>
  	<total>564</total>
    <results>
			<result>
			<name>建国东路肇周路</name>
			<location>
				<lat>31.219398</lat>
				<lng>121.486758</lng>
			</location>
							<address>24路;304路</address>
													<uid>7f53530e389b00eacac3dbeb</uid>
								</result>
			<result>
			<name>肇周路牛肉煎包摊</name>
			<location>
				<lat>31.220791</lat>
				<lng>121.487456</lng>
			</location>
							<address>黄浦区肇周路(近合肥路)</address>
													<uid>75d0881a9f8f38543a04b150</uid>
								</result>
			<result>
			<name>肇周路/济南路(路口)</name>
			<location>
				<lat>31.222095</lat>
				<lng>121.487174</lng>
			</location>
							<address>上海市黄浦区</address>
													<uid>b7021bf84343a9fbf4e73b7e</uid>
								</result>
			<result>
			<name>肇周路/永年路(路口)</name>
			<location>
				<lat>31.218081</lat>
				<lng>121.488171</lng>
			</location>
							<address>上海市卢湾区</address>
													<uid>26244127cf610b1aafee7ade</uid>
								</result>
			<result>
			<name>肇周路/吉安路(路口)</name>
			<location>
				<lat>31.222505</lat>
				<lng>121.488411</lng>
			</location>
							<address>上海市黄浦区</address>
													<uid>5e53af1ac60da85e4151c07e</uid>
								</result>
			<result>
			<name>肇周路/东台路(路口)</name>
			<location>
				<lat>31.222798</lat>
				<lng>121.489308</lng>
			</location>
							<address>上海市黄浦区</address>
													<uid>bf29b702029e069809b93a7e</uid>
								</result>
			<result>
			<name>肇周路/大吉路(路口)</name>
			<location>
				<lat>31.218768</lat>
				<lng>121.487965</lng>
			</location>
							<address>上海市卢湾区</address>
													<uid>d3cc6dbd3b56f3adb64f54f7</uid>
								</result>
			<result>
			<name>肇周路/合肥路(路口)</name>
			<location>
				<lat>31.222095</lat>
				<lng>121.487174</lng>
			</location>
							<address>上海市黄浦区</address>
													<uid>bcaebff8e51bfe55c9e33c7e</uid>
								</result>
			<result>
			<name>肇周路/建国东路(路口)</name>
			<location>
				<lat>31.219687</lat>
				<lng>121.487666</lng>
			</location>
							<address>上海市卢湾区</address>
													<uid>fa7da3e8297a686342d63e7e</uid>
								</result>
			<result>
			<name>肇周路/徐家汇路(路口)</name>
			<location>
				<lat>31.217008</lat>
				<lng>121.488502</lng>
			</location>
							<address>上海市卢湾区</address>
													<uid>be9252b0569b86c2be484257</uid>
								</result>
	  </results>
</PlaceSearchResponse>
