<?xml version="1.0" encoding="utf-8" ?> 
<PlaceSearchResponse> 
  <status>0</status>
  <message>ok</message>
  	<total>8</total>
    <results>
			<result>
			<name>花木人家</name>
			<location>
				<lat>31.211379</lat>
				<lng>121.728983</lng>
			</location>
							<address>浦东新区川沙镇华夏东路3548号(华洲北路附近)</address>
										<telephone>(021)68907767</telephone>
										<uid>c7fb04bd47ef050cfb0cadac</uid>
								</result>
			<result>
			<name>花木人家</name>
			<location>
				<lat>31.372065</lat>
				<lng>121.292106</lng>
			</location>
							<address>上海嘉定区丰登路1072号</address>
													<uid>2cb058dc8ec75a269a68b402</uid>
								</result>
			<result>
			<name>花木人家-玫瑰婚礼主题公园</name>
			<location>
				<lat>31.211294</lat>
				<lng>121.728745</lng>
			</location>
							<address>上海浦东新区川沙镇华夏东路3548号(近华洲北路)</address>
													<uid>cc3b1bed8f9e8cade311031b</uid>
								</result>
			<result>
			<name>上海人家短租公寓（樱花店）</name>
			<location>
				<lat>31.214112</lat>
				<lng>121.566756</lng>
			</location>
							<address>上海樱花路801弄（7号线花木路4号出口沿梅花路直行100米梅花路银霄路交叉口</address>
										<telephone>15026888733</telephone>
										<uid>6ea4d6d3bb82e344d8eced13</uid>
								</result>
			<result>
			<name>上海人家短租公寓新国际博览中心二店</name>
			<location>
				<lat>31.214082</lat>
				<lng>121.566834</lng>
			</location>
							<address>樱花路801弄（7号线花木路4号出口沿梅花路直行100米梅花路银霄路交叉口</address>
										<telephone>15026888733</telephone>
										<uid>17f6e999024820cb5cbe86b0</uid>
								</result>
			<result>
			<name>东北人家(花木店)</name>
			<location>
				<lat>31.216846</lat>
				<lng>121.565196</lng>
			</location>
							<address>浦东新区梅花路999弄后排20号(近银宵路)</address>
										<telephone>(021)38984066</telephone>
										<uid>00586108aff5e5bc46e274d7</uid>
								</result>
			<result>
			<name>勤俭村百姓游泳池</name>
			<location>
				<lat>31.205094</lat>
				<lng>121.722696</lng>
			</location>
							<address>上海市浦东新区川沙新镇华夏东路3458号（华洲路口）花木人家院内</address>
										<telephone>15221523539</telephone>
										<uid>a9f94ffc8e3e623380a12ec8</uid>
								</result>
			<result>
			<name>勤俭村百姓游泳池</name>
			<location>
				<lat>31.211371</lat>
				<lng>121.728983</lng>
			</location>
							<address>浦东新区川沙新镇华夏东路3458号花木人家院内(华洲路口)</address>
										<telephone>15221523539</telephone>
										<uid>0b78a42cb4ff5bf309b93a00</uid>
								</result>
	  </results>
</PlaceSearchResponse>
