<?xml version="1.0" encoding="utf-8" ?> 
<PlaceSearchResponse> 
  <status>0</status>
  <message>ok</message>
  	<total>23</total>
    <results>
			<result>
			<name>蕃瓜弄</name>
			<location>
				<lat>31.252146</lat>
				<lng>121.468134</lng>
			</location>
							<address>天目中路749弄2～72号</address>
													<uid>d219bb1d0800818af50e77fc</uid>
								</result>
			<result>
			<name>蕃瓜弄(正门)</name>
			<location>
				<lat>31.252022</lat>
				<lng>121.467829</lng>
			</location>
							<address>上海市闸北区天目中路749弄2-72号</address>
													<uid>d15a74a0fc6fd25ce81e97a7</uid>
								</result>
			<result>
			<name>上海市蕃瓜弄小学</name>
			<location>
				<lat>31.253751</lat>
				<lng>121.467268</lng>
			</location>
							<address>闸北区天目中路749弄55号(近大统路)</address>
										<telephone>(021)33030106</telephone>
										<uid>606289fd6d49f34ca20464fa</uid>
								</result>
			<result>
			<name>蕃瓜弄西南门</name>
			<location>
				<lat>31.252192</lat>
				<lng>121.46725</lng>
			</location>
							<address>天目中路749弄2～72号边门</address>
													<uid>54920e36ee03d97d336212d0</uid>
								</result>
			<result>
			<name>蕃瓜弄社区卫生服务站</name>
			<location>
				<lat>31.252547</lat>
				<lng>121.46725</lng>
			</location>
							<address>天目中路749弄2-72号</address>
													<uid>2cc3c8e8f8c2ebab4d2fdfef</uid>
								</result>
			<result>
			<name>蕃瓜弄小学</name>
			<location>
				<lat>31.253751</lat>
				<lng>121.467263</lng>
			</location>
							<address>闸北区天目中路749弄55号（近大统路）</address>
										<telephone>(021)33030106,(021)63174696</telephone>
										<uid>585c94e724508022eee4a510</uid>
								</result>
			<result>
			<name>上海市闸北区天目西路街道蕃瓜弄居委会</name>
			<location>
				<lat>31.252539</lat>
				<lng>121.467189</lng>
			</location>
							<address>天目中路749弄68临</address>
										<telephone>(021)63170958</telephone>
										<uid>083a55fa0b016704256e9896</uid>
								</result>
			<result>
			<name>蕃瓜弄-西门</name>
			<location>
				<lat>31.253612</lat>
				<lng>121.466836</lng>
			</location>
							<address>上海市闸北区</address>
													<uid>80837e8f7be275f5cc06a426</uid>
								</result>
			<result>
			<name>蕃瓜弄-南一门</name>
			<location>
				<lat>31.252099</lat>
				<lng>121.467421</lng>
			</location>
							<address>天目中路749弄2-72号</address>
													<uid>b500ab8fc42e16f6c5effb35</uid>
								</result>
			<result>
			<name>蕃瓜弄-南二门</name>
			<location>
				<lat>31.251852</lat>
				<lng>121.468047</lng>
			</location>
							<address>天目中路749弄2-72号</address>
													<uid>6e64e0c47c69a8cd4354d7cf</uid>
								</result>
	  </results>
</PlaceSearchResponse>
