<?xml version="1.0" encoding="utf-8" ?> 
<PlaceSearchResponse> 
  <status>0</status>
  <message>ok</message>
  	<total>417</total>
    <results>
			<result>
			<name>虹口足球场</name>
			<location>
				<lat>31.277657</lat>
				<lng>121.486727</lng>
			</location>
							<address>虹口区东江湾路444号虹口足球场内(近四川路)</address>
										<telephone>(021)65400009</telephone>
										<uid>d146b388df5261df74026931</uid>
								</result>
			<result>
			<name>百联虹口购物中心</name>
			<location>
				<lat>31.279247</lat>
				<lng>121.474126</lng>
			</location>
							<address>上海市虹口区同丰路699号</address>
										<telephone>(021)56657799</telephone>
										<uid>91c13f93303a40e321f017cc</uid>
								</result>
			<result>
			<name>运动LOFT羽乒馆</name>
			<location>
				<lat>31.276292</lat>
				<lng>121.47863</lng>
			</location>
							<address>虹口区花园路128号运动LOFT创意园区六街区1楼(近水电路)</address>
										<telephone>(021)36368119</telephone>
										<uid>74c933fb971165479e82ea6a</uid>
								</result>
			<result>
			<name>银点羽乒馆</name>
			<location>
				<lat>31.309186</lat>
				<lng>121.487536</lng>
			</location>
							<address>新市北路1400号4楼（近仁德路）</address>
										<telephone>(021)65605778</telephone>
										<uid>fd007c5e669d1d75a8f72966</uid>
								</result>
			<result>
			<name>海军上海游泳馆</name>
			<location>
				<lat>31.283097</lat>
				<lng>121.4748</lng>
			</location>
							<address>虹口区广灵二路281号海军基地5号门（近水电路）</address>
										<telephone>(021)81866104</telephone>
										<uid>09185c56d5407544f1193766</uid>
								</result>
			<result>
			<name>虹口游泳俱乐部</name>
			<location>
				<lat>31.278475</lat>
				<lng>121.48694</lng>
			</location>
							<address>东江湾路444号虹口足球场内(近四川路)</address>
										<telephone>(021)56650759,(021)56663730,(021)56960676</telephone>
										<uid>0adce3e2de0c3c7880a00c6b</uid>
								</result>
			<result>
			<name>欢乐旱冰场</name>
			<location>
				<lat>31.277572</lat>
				<lng>121.508582</lng>
			</location>
							<address>大连路1131号和平公园内</address>
													<uid>218fab7101f84ffa4f6d466c</uid>
								</result>
			<result>
			<name>精武体育馆</name>
			<location>
				<lat>31.290688</lat>
				<lng>121.4954</lng>
			</location>
							<address>东体育会路715号(近中山北二路)</address>
										<telephone>(021)65532388</telephone>
										<uid>89fd4ea3d05e5e46e5e96531</uid>
								</result>
			<result>
			<name>虹口体育馆</name>
			<location>
				<lat>31.290812</lat>
				<lng>121.495175</lng>
			</location>
							<address>虹口区东体育会路715号（近中山北二路）</address>
										<telephone>(021)65532388</telephone>
										<uid>7a89f5f2f2ea2be1ce04efe7</uid>
								</result>
			<result>
			<name>虹口体育馆羽毛球场</name>
			<location>
				<lat>31.290812</lat>
				<lng>121.495175</lng>
			</location>
							<address>虹口区东体育会路715号(近中山北二路)</address>
										<telephone>(021)65532388,(021)65538436</telephone>
										<uid>55fa2c0b46c99e341de999ec</uid>
								</result>
	  </results>
</PlaceSearchResponse>
