<?xml version="1.0" encoding="utf-8" ?> 
<PlaceSearchResponse> 
  <status>0</status>
  <message>ok</message>
  	<total>545</total>
    <results>
			<result>
			<name>虹泉路</name>
			<location>
				<lat>31.177245</lat>
				<lng>121.387094</lng>
			</location>
							<address>上海市闵行区</address>
													<uid>c844080396275777c06c140a</uid>
								</result>
			<result>
			<name>虹泉路金汇南路</name>
			<location>
				<lat>31.176296</lat>
				<lng>121.383606</lng>
			</location>
							<address>764路;931路;虹桥镇2路</address>
													<uid>92191011a3f0eefe01294f90</uid>
								</result>
			<result>
			<name>虹莘路虹泉路</name>
			<location>
				<lat>31.173778</lat>
				<lng>121.378999</lng>
			</location>
							<address>149路;764路;虹桥枢纽1路</address>
													<uid>d1f7d0b6f1a9d1b32a11d19a</uid>
								</result>
			<result>
			<name>虹泉路/金汇南路(路口)</name>
			<location>
				<lat>31.176365</lat>
				<lng>121.384232</lng>
			</location>
							<address>上海市闵行区</address>
													<uid>e2c734e4b0158e5c14a19087</uid>
								</result>
			<result>
			<name>韩国小吃(虹泉路)</name>
			<location>
				<lat>31.176017</lat>
				<lng>121.381585</lng>
			</location>
							<address>上海闵行区虹泉路1000号井亭大厦2楼(近金汇南路)</address>
													<uid>550fd5f90a97f660931fc963</uid>
								</result>
			<result>
			<name>虹泉路</name>
			<location>
				<lat>31.175268</lat>
				<lng>121.380505</lng>
			</location>
							<address>上海闵行区虹泉路(近金汇路)</address>
										<telephone>15026808330</telephone>
										<uid>ada9a85184f33fb90bccdd04</uid>
								</result>
			<result>
			<name>虹泉路/虹莘路(路口)</name>
			<location>
				<lat>31.174751</lat>
				<lng>121.378732</lng>
			</location>
							<address>上海市闵行区</address>
													<uid>cced850d69a9156538221cd8</uid>
								</result>
			<result>
			<name>虹泉路/吴中路(路口)</name>
			<location>
				<lat>31.175786</lat>
				<lng>121.382232</lng>
			</location>
							<address>上海市闵行区</address>
													<uid>34e4850821fc73e3d9d89187</uid>
								</result>
			<result>
			<name>虹泉东路</name>
			<location>
				<lat>31.177856</lat>
				<lng>121.389079</lng>
			</location>
							<address>上海市闵行区</address>
													<uid>48e6ca9746b8810f85420eee</uid>
								</result>
			<result>
			<name>香啡缤(虹泉路店)</name>
			<location>
				<lat>31.17526</lat>
				<lng>121.379768</lng>
			</location>
							<address>上海闵行区虹泉路1078号井亭天地1楼05单元(近虹莘路)</address>
										<telephone>(021)34675538</telephone>
										<uid>3a0a78bdadcd9be3621809bd</uid>
								</result>
	  </results>
</PlaceSearchResponse>
