<?xml version="1.0" encoding="utf-8" ?> 
<PlaceSearchResponse> 
  <status>0</status>
  <message>ok</message>
  	<total>23</total>
    <results>
			<result>
			<name>西佘山</name>
			<location>
				<lat>31.099371</lat>
				<lng>121.196402</lng>
			</location>
							<address>上海市松江区林荫新路1158号佘山国家旅游度假区内</address>
										<telephone>(021)57653324</telephone>
										<uid>c97854bb83109596b05c6a48</uid>
								</result>
			<result>
			<name>上海佘山国家森林公园西佘山园</name>
			<location>
				<lat>31.099997</lat>
				<lng>121.191701</lng>
			</location>
							<address>上海市松江区佘山镇佘山森林公园内</address>
										<telephone>(021)57653423,(021)57657231</telephone>
										<uid>f7fa5111f5d400e29703193d</uid>
								</result>
			<result>
			<name>上海佘山国家森林公园西佘山园(北大门)</name>
			<location>
				<lat>31.103143</lat>
				<lng>121.201824</lng>
			</location>
							<address>上海市松江区外青松公路9142号上海佘山国家森林公园西佘山园内</address>
										<telephone>(021)57651666</telephone>
										<uid>4e18618110905d10626858b0</uid>
								</result>
			<result>
			<name>佘山国家森林公园西佘山园教友门</name>
			<location>
				<lat>31.098327</lat>
				<lng>121.202075</lng>
			</location>
							<address>上海市松江区环山路3号</address>
										<telephone>(021)57653423</telephone>
										<uid>962e75299db67de1c61b7556</uid>
								</result>
			<result>
			<name>上海市佘山古树名木保护区</name>
			<location>
				<lat>31.098389</lat>
				<lng>121.201975</lng>
			</location>
							<address>上海市松江区外青松公路9142号上海佘山国家森林公园西佘山园内</address>
													<uid>ba1a80dee5f5b641774ff1e2</uid>
								</result>
			<result>
			<name>佘山秀化寺</name>
			<location>
				<lat>31.1021</lat>
				<lng>121.201323</lng>
			</location>
							<address>上海市松江区外青松公路9142号上海佘山国家森林公园西佘山园内</address>
													<uid>56b4c5560dedcfb93b221c55</uid>
								</result>
			<result>
			<name>竹木栈道</name>
			<location>
				<lat>31.102301</lat>
				<lng>121.201014</lng>
			</location>
							<address>上海市松江区外青松公路9142号上海佘山国家森林公园西佘山园内</address>
													<uid>99f97ec4ebb38c4336b06c66</uid>
								</result>
			<result>
			<name>上海教区天主教圣物供应处</name>
			<location>
				<lat>31.100476</lat>
				<lng>121.199255</lng>
			</location>
							<address>上海市松江区外青松公路9142号国家森林公园西佘山园内</address>
													<uid>ff87a2ac8cb3f0a18f55ec41</uid>
								</result>
			<result>
			<name>圣物供应处</name>
			<location>
				<lat>31.099224</lat>
				<lng>121.200242</lng>
			</location>
							<address>上海市松江区外青松公路9142号上海佘山国家森林公园西佘山园内</address>
													<uid>49efc77b93fd1684a1a93490</uid>
								</result>
			<result>
			<name>大型观光望远镜</name>
			<location>
				<lat>31.100569</lat>
				<lng>121.200278</lng>
			</location>
							<address>上海市松江区外青松公路9142号上海佘山国家森林公园西佘山园内</address>
													<uid>301e1471c7a85fe4455726dd</uid>
								</result>
	  </results>
</PlaceSearchResponse>
