<?xml version="1.0" encoding="utf-8" ?> 
<PlaceSearchResponse> 
  <status>0</status>
  <message>ok</message>
  	<total>56</total>
    <results>
			<result>
			<name>西沙国家湿地公园</name>
			<location>
				<lat>31.732223</lat>
				<lng>121.238152</lng>
			</location>
							<address>上海市崇明县绿华镇明珠湖西侧</address>
										<telephone>021-39633635</telephone>
										<uid>31f9101b046ccdc726e0a064</uid>
								</result>
			<result>
			<name>西沙国家湿地公园-东大门</name>
			<location>
				<lat>31.731563</lat>
				<lng>121.256474</lng>
			</location>
							<address>上海市崇明县堡湖路西沙国家湿地公园内</address>
													<uid>09b4798ed8aac7074d776ece</uid>
								</result>
			<result>
			<name>西沙国家湿地公园-西大门</name>
			<location>
				<lat>31.733237</lat>
				<lng>121.245911</lng>
			</location>
							<address>上海市崇明县堡湖路西沙国家湿地公园内</address>
													<uid>2006ad70e688f29fd12dd63c</uid>
								</result>
			<result>
			<name>西沙湿地科普知识画廊(鱼类)</name>
			<location>
				<lat>31.731509</lat>
				<lng>121.247205</lng>
			</location>
							<address>上海市崇明县堡湖路西沙国家湿地公园内</address>
													<uid>9ce8dc12cb7ae82fafee7ab7</uid>
								</result>
			<result>
			<name>西沙湿地科普知识画廊(鸟类)</name>
			<location>
				<lat>31.730097</lat>
				<lng>121.247913</lng>
			</location>
							<address>上海市崇明县堡湖路西沙国家湿地公园内</address>
													<uid>3de02dea80051350f33cbadf</uid>
								</result>
			<result>
			<name>西沙湿地科普知识画廊(地质景点)</name>
			<location>
				<lat>31.731271</lat>
				<lng>121.243593</lng>
			</location>
							<address>上海市崇明县堡湖路西沙国家湿地公园内</address>
													<uid>5fefdc7a9225a9f9a4c75623</uid>
								</result>
			<result>
			<name>西沙湿地科普知识画廊(底栖动物)</name>
			<location>
				<lat>31.730718</lat>
				<lng>121.243449</lng>
			</location>
							<address>上海市崇明县堡湖路西沙国家湿地公园内</address>
													<uid>161ee9ad68fe7952b64f54ac</uid>
								</result>
			<result>
			<name>西沙国家湿地公园-小卖部</name>
			<location>
				<lat>31.733982</lat>
				<lng>121.246378</lng>
			</location>
							<address>上海市崇明县堡湖路西沙国家湿地公园内</address>
													<uid>9511525dc001333d1e1d118f</uid>
								</result>
			<result>
			<name>西沙国家湿地公园-凉亭</name>
			<location>
				<lat>31.733721</lat>
				<lng>121.246162</lng>
			</location>
							<address>上海市崇明县堡湖路西沙国家湿地公园内</address>
													<uid>9cd99e24ce0f200f100daae5</uid>
								</result>
			<result>
			<name>西沙国家湿地公园-售票处</name>
			<location>
				<lat>31.731509</lat>
				<lng>121.256244</lng>
			</location>
							<address>上海市崇明县堡湖路西沙国家湿地公园内</address>
													<uid>c2ec688807de0a5d7069d333</uid>
								</result>
	  </results>
</PlaceSearchResponse>
