<?xml version="1.0" encoding="utf-8" ?> 
<PlaceSearchResponse> 
  <status>0</status>
  <message>ok</message>
  	<total>2423</total>
    <results>
			<result>
			<name>西藏南路</name>
			<location>
				<lat>31.207672</lat>
				<lng>121.496122</lng>
			</location>
							<address>地铁4号线;地铁8号线</address>
													<uid>43d523228cf08f16d5851fd9</uid>
								</result>
			<result>
			<name>西藏南路</name>
			<location>
				<lat>31.203372</lat>
				<lng>121.498984</lng>
			</location>
							<address>上海市黄浦区</address>
													<uid>a728310891be585133870a19</uid>
								</result>
			<result>
			<name>西藏南路</name>
			<location>
				<lat>31.193233</lat>
				<lng>121.50498</lng>
			</location>
							<address>上海市浦东新区</address>
													<uid>b5095303acfeb8888a36ee2e</uid>
								</result>
			<result>
			<name>西藏南路</name>
			<location>
				<lat>31.208422</lat>
				<lng>121.495925</lng>
			</location>
							<address>卢湾区西藏南路</address>
													<uid>b1b6fa38312d430dae31e5ff</uid>
								</result>
			<result>
			<name>淮海中路西藏南路（招呼站）</name>
			<location>
				<lat>31.23101</lat>
				<lng>121.485615</lng>
			</location>
							<address>南申专线</address>
													<uid>268268f2f853d5610289725e</uid>
								</result>
			<result>
			<name>清流北街/西藏南路(路口)</name>
			<location>
				<lat>31.204793</lat>
				<lng>121.497828</lng>
			</location>
							<address>上海市黄浦区</address>
													<uid>bb1d38e4154d934c0c0a7065</uid>
								</result>
			<result>
			<name>西藏中路/西藏南路(路口)</name>
			<location>
				<lat>31.234632</lat>
				<lng>121.484914</lng>
			</location>
							<address>上海市黄浦区</address>
													<uid>18f0638f1f06df79102935b1</uid>
								</result>
			<result>
			<name>浏河口路/西藏南路(路口)</name>
			<location>
				<lat>31.227623</lat>
				<lng>121.487916</lng>
			</location>
							<address>上海市卢湾区</address>
													<uid>d8d80efc0337f96bc7f0259f</uid>
								</result>
			<result>
			<name>高雄路/西藏南路(路口)</name>
			<location>
				<lat>31.204793</lat>
				<lng>121.497828</lng>
			</location>
							<address>上海市黄浦区</address>
													<uid>b11c90c5007b4bd488f15d82</uid>
								</result>
			<result>
			<name>肇周路/西藏南路(路口)</name>
			<location>
				<lat>31.223184</lat>
				<lng>121.490418</lng>
			</location>
							<address>上海市黄浦区</address>
													<uid>153bc4e47ea27b26d8eced11</uid>
								</result>
	  </results>
</PlaceSearchResponse>
