<?xml version="1.0" encoding="utf-8" ?> 
<PlaceSearchResponse> 
  <status>0</status>
  <message>ok</message>
  	<total>370</total>
    <results>
			<result>
			<name>金山卫镇</name>
			<location>
				<lat>30.730982</lat>
				<lng>121.324193</lng>
			</location>
							<address>上海市金山区</address>
													<uid>0ef2bed462228fbef33cba34</uid>
								</result>
			<result>
			<name>金山卫镇敬老院</name>
			<location>
				<lat>30.763438</lat>
				<lng>121.26461</lng>
			</location>
							<address>金山区张桥村刘埝2143号</address>
										<telephone>021-57298868</telephone>
										<uid>d1469ee788cd8f638433042f</uid>
								</result>
			<result>
			<name>金山卫镇八一村卫生室</name>
			<location>
				<lat>30.734062</lat>
				<lng>121.308804</lng>
			</location>
							<address>金山区金山大道4205弄-48-临</address>
										<telephone>(021)67261495</telephone>
										<uid>3c0ea7c5d063d79dfbf0cb1c</uid>
								</result>
			<result>
			<name>金山卫镇联合村卫生室</name>
			<location>
				<lat>30.769885</lat>
				<lng>121.25945</lng>
			</location>
							<address>横召村联合2138</address>
										<telephone>(021)57292877</telephone>
										<uid>be1ea5eff7169cc115948e86</uid>
								</result>
			<result>
			<name>金山卫镇社会保障服务中心</name>
			<location>
				<lat>30.731796</lat>
				<lng>121.319069</lng>
			</location>
							<address>临江路29号</address>
													<uid>91b5c23f1616c2db8afc062b</uid>
								</result>
			<result>
			<name>金山卫镇图书馆</name>
			<location>
				<lat>30.730562</lat>
				<lng>121.318706</lng>
			</location>
							<address>卫镇古城路295号</address>
										<telephone>(021)57260148</telephone>
										<uid>d24e48eb36f761b5afee7a31</uid>
								</result>
			<result>
			<name>金山卫镇政府</name>
			<location>
				<lat>30.731207</lat>
				<lng>121.324243</lng>
			</location>
							<address>老卫清路288号</address>
										<telephone>(021)57260425</telephone>
										<uid>b6a02e140079b7a131870ada</uid>
								</result>
			<result>
			<name>金山区金山卫镇社区卫生服务中心</name>
			<location>
				<lat>30.731098</lat>
				<lng>121.320811</lng>
			</location>
							<address>金山卫镇西静路367号</address>
													<uid>e1a31285cc61612fede4a5ee</uid>
								</result>
			<result>
			<name>金山卫镇墓地</name>
			<location>
				<lat>30.786515</lat>
				<lng>121.228261</lng>
			</location>
							<address>上海市金山区</address>
													<uid>43b7e8896878aa1459f6bea3</uid>
								</result>
			<result>
			<name>金山卫镇商会</name>
			<location>
				<lat>30.732246</lat>
				<lng>121.329785</lng>
			</location>
							<address>学府路489号</address>
										<telephone>(021)67262399</telephone>
										<uid>b0d2eeed62be8f035e0d0289</uid>
								</result>
	  </results>
</PlaceSearchResponse>
