<?xml version="1.0" encoding="utf-8" ?> 
<PlaceSearchResponse> 
  <status>0</status>
  <message>ok</message>
  	<total>12</total>
    <results>
			<result>
			<name>海滨新城</name>
			<location>
				<lat>30.737779</lat>
				<lng>121.366939</lng>
			</location>
							<address>金山石化龙胜东路550弄</address>
													<uid>a0d4cd1d73840dae00294f67</uid>
								</result>
			<result>
			<name>上海市金山区海滨体育场(西北门)</name>
			<location>
				<lat>30.713472</lat>
				<lng>121.348545</lng>
			</location>
							<address>合浦路147</address>
										<telephone>(021)57933139</telephone>
										<uid>8ecf1c2c6dde70e3220220e0</uid>
								</result>
			<result>
			<name>海滨游泳池</name>
			<location>
				<lat>30.715684</lat>
				<lng>121.343131</lng>
			</location>
							<address>石化卫一路25弄5号</address>
										<telephone>(021)57933139</telephone>
										<uid>d6c5d9917d8387f130169b67</uid>
								</result>
			<result>
			<name>海滨体育场</name>
			<location>
				<lat>30.713488</lat>
				<lng>121.348593</lng>
			</location>
							<address>金山区石化合浦路147号（合浦路荔浦路）</address>
										<telephone>(021)57933139</telephone>
										<uid>f2e92c0b37835ab86240a9f0</uid>
								</result>
			<result>
			<name>海滨汽修厂</name>
			<location>
				<lat>30.766673</lat>
				<lng>121.366874</lng>
			</location>
							<address>红旗东路389号附近</address>
										<telephone>(021)57241007</telephone>
										<uid>c7eca12b1def1036e115f931</uid>
								</result>
			<result>
			<name>海滨公园</name>
			<location>
				<lat>30.712844</lat>
				<lng>121.350713</lng>
			</location>
							<address>金山区新城路16号（合浦路新城路）</address>
										<telephone>(021)57931120</telephone>
										<uid>357157255551da294302458b</uid>
								</result>
			<result>
			<name>海滨新城-北门</name>
			<location>
				<lat>30.739782</lat>
				<lng>121.36435</lng>
			</location>
							<address>上海市金山区</address>
										<telephone>(021)67226722</telephone>
										<uid>21dc326854dda6fed0ff2308</uid>
								</result>
			<result>
			<name>海滨游泳池</name>
			<location>
				<lat>30.715801</lat>
				<lng>121.343387</lng>
			</location>
							<address>金山区石化卫一路25弄5号</address>
										<telephone>(021)57932452</telephone>
										<uid>e80b9ab0b8a255174e2fdf72</uid>
								</result>
			<result>
			<name>上海海滨旅行社</name>
			<location>
				<lat>30.721148</lat>
				<lng>121.343176</lng>
			</location>
							<address>金山区金零路106-108号</address>
										<telephone>(021)57940690</telephone>
										<uid>4eb3b533039d2776430245ca</uid>
								</result>
			<result>
			<name>海滨电力设备安装工程公司</name>
			<location>
				<lat>30.72565</lat>
				<lng>121.328978</lng>
			</location>
							<address>南安路98</address>
													<uid>0ed20a1549ff8ae956bfff88</uid>
								</result>
	  </results>
</PlaceSearchResponse>
