<?xml version="1.0" encoding="utf-8" ?> 
<PlaceSearchResponse> 
  <status>0</status>
  <message>ok</message>
  	<total>19</total>
    <results>
			<result>
			<name>金杨广场</name>
			<location>
				<lat>31.251343</lat>
				<lng>121.582471</lng>
			</location>
							<address>上海市云山路1247-1267号</address>
										<telephone>(021)50718326</telephone>
										<uid>7d5f3a0a778169522db908bc</uid>
								</result>
			<result>
			<name>金杨广场-西门</name>
			<location>
				<lat>31.251582</lat>
				<lng>121.581644</lng>
			</location>
							<address>云山路1263号附近</address>
													<uid>1b250fdfc7c588e23a221c4c</uid>
								</result>
			<result>
			<name>中央商场维修（金杨店）</name>
			<location>
				<lat>31.258536</lat>
				<lng>121.589551</lng>
			</location>
							<address>浦东新区金杨路712号（近金桥路）</address>
													<uid>8744b9decb8c7defd618b758</uid>
								</result>
			<result>
			<name>中央商场维修(金杨店)</name>
			<location>
				<lat>31.258536</lat>
				<lng>121.589576</lng>
			</location>
							<address>浦东新区金杨路712号(近金桥路)</address>
										<telephone>(021)50500731</telephone>
										<uid>af00a241fd45fe06471a3250</uid>
								</result>
			<result>
			<name>宝岛眼镜（金杨路店）</name>
			<location>
				<lat>31.264216</lat>
				<lng>121.584332</lng>
			</location>
							<address>浦东新区张杨路3611号金桥国际商业广场A101-102号铺（近金桥路）</address>
										<telephone>(021)20233065</telephone>
										<uid>a2a660bddc8de221f603b8f0</uid>
								</result>
			<result>
			<name>Love Nail 爱美甲</name>
			<location>
				<lat>31.255595</lat>
				<lng>121.588615</lng>
			</location>
							<address>金杨路628号2楼B123-125（金杨第一商场内）</address>
										<telephone>13585849660,15000306187</telephone>
										<uid>17ea37967d776cc2ae31e5fd</uid>
								</result>
			<result>
			<name>乐高私课</name>
			<location>
				<lat>31.263066</lat>
				<lng>121.58602</lng>
			</location>
							<address>浦东新区张杨路3611弄金桥国际商业广场附近（近金杨路）</address>
										<telephone>15900618873</telephone>
										<uid>409df88b842d42bdd618b72f</uid>
								</result>
			<result>
			<name>龙文教育（张杨路分部）</name>
			<location>
				<lat>31.260558</lat>
				<lng>121.584681</lng>
			</location>
							<address>浦东新区张杨路3611号金桥商业广场6座9楼（近金杨路）</address>
										<telephone>(021)20233265</telephone>
										<uid>3e980be9f1c86c7ebadf8f63</uid>
								</result>
			<result>
			<name>动感地带</name>
			<location>
				<lat>31.264216</lat>
				<lng>121.584332</lng>
			</location>
							<address>浦东新区张杨路3611号金桥国际商业广场3楼（近金杨路）</address>
													<uid>90ada0b01260700c6d20b9e3</uid>
								</result>
			<result>
			<name>快乐星猫(金桥店)</name>
			<location>
				<lat>31.263953</lat>
				<lng>121.584719</lng>
			</location>
							<address>浦东新区张杨路3611号金桥国际广场1座3楼（近金杨路）</address>
										<telephone>(021)33849018</telephone>
										<uid>0944882ab0f5a2cbb05c6a2f</uid>
								</result>
	  </results>
</PlaceSearchResponse>
