<?xml version="1.0" encoding="utf-8" ?> 
<PlaceSearchResponse> 
  <status>0</status>
  <message>ok</message>
  	<total>10</total>
    <results>
			<result>
			<name>长安墓园</name>
			<location>
				<lat>31.335993</lat>
				<lng>121.184347</lng>
			</location>
							<address>上海市嘉定区嘉安公路3688号(墨玉路口)</address>
										<telephone>4008213507</telephone>
										<uid>550fd5f9baf0a678931fc9e6</uid>
								</result>
			<result>
			<name>长安墓园</name>
			<location>
				<lat>31.33607</lat>
				<lng>121.184354</lng>
			</location>
							<address>嘉定区嘉安公路3688号</address>
										<telephone>(021)59563564</telephone>
										<uid>874acd230bb87d9e2ce67b00</uid>
								</result>
			<result>
			<name>长安墓园桥</name>
			<location>
				<lat>31.338391</lat>
				<lng>121.183485</lng>
			</location>
							<address>上海市嘉定区</address>
													<uid>d60e25cafde2de1f8433048c</uid>
								</result>
			<result>
			<name>上海长安墓园代办处</name>
			<location>
				<lat>31.241873</lat>
				<lng>121.43056</lng>
			</location>
							<address>谈家渡路162-1号102室</address>
										<telephone>(021)62031569</telephone>
										<uid>2025d80c8f8b307fb34c4910</uid>
								</result>
			<result>
			<name>嘉定长安墓园代办处(铜川店)</name>
			<location>
				<lat>31.259547</lat>
				<lng>121.38881</lng>
			</location>
							<address>铜川路1956</address>
										<telephone>(021)52767010</telephone>
										<uid>cc634c90291cfabd6140a951</uid>
								</result>
			<result>
			<name>嘉定长安墓园雪松路办事处</name>
			<location>
				<lat>31.293496</lat>
				<lng>121.356358</lng>
			</location>
							<address>雪松路540</address>
										<telephone>(021)66958564</telephone>
										<uid>b59a30b3f709333949fc8dda</uid>
								</result>
			<result>
			<name>上海嘉定长安公墓办事处</name>
			<location>
				<lat>31.238731</lat>
				<lng>121.415497</lng>
			</location>
							<address>杏山路45-1</address>
										<telephone>(021)62165968</telephone>
										<uid>aa1573022c6b348cb020a8ad</uid>
								</result>
			<result>
			<name>长安墓园-停车场</name>
			<location>
				<lat>31.335098</lat>
				<lng>121.184381</lng>
			</location>
							<address>上海市嘉定区</address>
													<uid>a74481d679396745f403b8b2</uid>
								</result>
			<result>
			<name>嘉定长安墓园&amp;苏州清泉公墓办事处</name>
			<location>
				<lat>31.272341</lat>
				<lng>121.477318</lng>
			</location>
							<address>西宝兴路698-700</address>
										<telephone>(021)56982898</telephone>
										<uid>273f12e382e9c5dcf503b8ea</uid>
								</result>
			<result>
			<name>长安墓园小客车停车场</name>
			<location>
				<lat>31.334296</lat>
				<lng>121.184027</lng>
			</location>
							<address>静安区园民路</address>
													<uid>104dbb9fed4bb34f0d0e6b0f</uid>
								</result>
	  </results>
</PlaceSearchResponse>
