<?xml version="1.0" encoding="utf-8" ?> 
<PlaceSearchResponse> 
  <status>0</status>
  <message>ok</message>
  	<total>54</total>
    <results>
			<result>
			<name>长宁图书馆</name>
			<location>
				<lat>31.220544</lat>
				<lng>121.395128</lng>
			</location>
							<address>长宁区天山路356号(天中路与威宁路之间)</address>
										<telephone>(021)33538801</telephone>
										<uid>08f1f1f5e647fdcb88db7362</uid>
								</result>
			<result>
			<name>长宁图书馆</name>
			<location>
				<lat>31.220544</lat>
				<lng>121.395124</lng>
			</location>
							<address>长宁区天山路356号（天中路与威宁路之间）</address>
										<telephone>(021)33538868</telephone>
										<uid>4266d6967e696dbe725e8003</uid>
								</result>
			<result>
			<name>长宁区少年儿童图书馆</name>
			<location>
				<lat>31.211039</lat>
				<lng>121.392385</lng>
			</location>
							<address>长宁区仙霞路700弄41号(近安龙路)</address>
										<telephone>(021)62622441</telephone>
										<uid>4f8b61945b4f071881a12e78</uid>
								</result>
			<result>
			<name>长宁区虹桥街道图书馆</name>
			<location>
				<lat>31.203735</lat>
				<lng>121.417006</lng>
			</location>
							<address>虹桥路1115弄19号</address>
										<telephone>(021)62093161</telephone>
										<uid>7d5f3a0a57c549492cb9086b</uid>
								</result>
			<result>
			<name>长宁中心图书馆(周桥分馆)</name>
			<location>
				<lat>31.225168</lat>
				<lng>121.414099</lng>
			</location>
							<address>长宁区长宁路1488弄6号(近遵义路)</address>
										<telephone>(021)33538818</telephone>
										<uid>13972534513d083dad080f30</uid>
								</result>
			<result>
			<name>长宁区少年儿童图书馆分馆</name>
			<location>
				<lat>31.221385</lat>
				<lng>121.407609</lng>
			</location>
							<address>长宁区玉屏南路640号(娄山关路玉屏南路)</address>
													<uid>53d61b12cc92bc1c5dbe8698</uid>
								</result>
			<result>
			<name>长宁图书馆娄山关分馆</name>
			<location>
				<lat>31.218027</lat>
				<lng>121.41084</lng>
			</location>
							<address>长宁区娄山关路755号（近天山路）</address>
													<uid>30ed61e576454930ddee8baa</uid>
								</result>
			<result>
			<name>长宁图书馆娄山关分馆</name>
			<location>
				<lat>31.218027</lat>
				<lng>121.41084</lng>
			</location>
							<address>长宁区娄山关路755号(近天山路)</address>
													<uid>1177338ab3315b09057ce83c</uid>
								</result>
			<result>
			<name>长宁中心图书馆（周桥分馆）</name>
			<location>
				<lat>31.223925</lat>
				<lng>121.414172</lng>
			</location>
							<address>长宁区长宁路1488-6号（长宁路遵义路）</address>
										<telephone>(021)62731013-102</telephone>
										<uid>cacb84a3ef05c8ed71455b94</uid>
								</result>
			<result>
			<name>华东政法大学(长宁校区)-图书馆</name>
			<location>
				<lat>31.231305</lat>
				<lng>121.423197</lng>
			</location>
							<address>长宁区万航渡路1575号华东政法大学内(近华阳路)</address>
										<telephone>(021)62071651</telephone>
										<uid>289c52f1abb04c090482c247</uid>
								</result>
	  </results>
</PlaceSearchResponse>
