<?xml version="1.0" encoding="utf-8" ?> 
<PlaceSearchResponse> 
  <status>0</status>
  <message>ok</message>
  	<total>20</total>
    <results>
			<result>
			<name>闵行区中心绿地</name>
			<location>
				<lat>31.115101</lat>
				<lng>121.387532</lng>
			</location>
							<address>广贤路118号附近</address>
													<uid>2a7a25eca3725d1e6c3e1b0d</uid>
								</result>
			<result>
			<name>上海市闵行区浦江镇绿地购物中心浦锦路店</name>
			<location>
				<lat>31.080491</lat>
				<lng>121.504084</lng>
			</location>
							<address>闵行区浦江镇浦锦路398号沃尔玛北出口地下08室</address>
										<telephone>4008819777</telephone>
										<uid>3cbdfa82aa7329c001294f77</uid>
								</result>
			<result>
			<name>绿地科技岛物业服务中心</name>
			<location>
				<lat>31.1215</lat>
				<lng>121.393147</lng>
			</location>
							<address>上海闵行区莘建东路58弄3号绿地科技岛广场B座2层</address>
													<uid>7584392e2e0b463ed1f49ea5</uid>
								</result>
			<result>
			<name>绿地科技岛商务es服务中心</name>
			<location>
				<lat>31.121995</lat>
				<lng>121.393805</lng>
			</location>
							<address>上海闵行区莘建东路58弄2号绿地科技岛广场A座1层</address>
													<uid>ecc29ac3b76487b7128824f0</uid>
								</result>
			<result>
			<name>亿建(上海)股权投资基金管理有限公司</name>
			<location>
				<lat>31.192375</lat>
				<lng>121.465166</lng>
			</location>
							<address>上海市闵行区龙华中路596号绿地中心a座614室</address>
										<telephone>021-64028500</telephone>
										<uid>a4440051ef99c1df25e0a03e</uid>
								</result>
			<result>
			<name>绿地蓝海食尚休闲商业街</name>
			<location>
				<lat>31.120349</lat>
				<lng>121.393436</lng>
			</location>
							<address>上海市闵行区广通路66号</address>
													<uid>f633606af96818570b69d900</uid>
								</result>
			<result>
			<name>上海市闵行区招商服务中心</name>
			<location>
				<lat>31.120511</lat>
				<lng>121.393266</lng>
			</location>
							<address>上海闵行区莘建东路58弄3号绿地科技岛广场B座12层</address>
										<telephone>(021)64139108</telephone>
										<uid>87c83af70b469bf31e58008e</uid>
								</result>
			<result>
			<name>上海浦江绿地乐和城</name>
			<location>
				<lat>31.083066</lat>
				<lng>121.50354</lng>
			</location>
							<address>上海市闵行区浦锦路309弄</address>
													<uid>68e8271ab59acdaa8715419b</uid>
								</result>
			<result>
			<name>艾玛仕造型护肤养生中心</name>
			<location>
				<lat>31.080491</lat>
				<lng>121.504084</lng>
			</location>
							<address>闵行区浦江镇浦锦路309弄绿地沃尔玛广场南端2-3楼(浦锦路江园路口，全家超市楼上)</address>
										<telephone>(021)34632982</telephone>
										<uid>d5464cf83b2b074efda77856</uid>
								</result>
			<result>
			<name>七田文化教育中心</name>
			<location>
				<lat>31.12082</lat>
				<lng>121.393705</lng>
			</location>
							<address>闵行区广通路66弄3号126号绿地广场1楼</address>
										<telephone>(021)64616681</telephone>
										<uid>b6c1619d4a8aa07d2cb908a5</uid>
								</result>
	  </results>
</PlaceSearchResponse>
