<?xml version="1.0" encoding="utf-8" ?> 
<PlaceSearchResponse> 
  <status>0</status>
  <message>ok</message>
  	<total>177</total>
    <results>
			<result>
			<name>闵行公园</name>
			<location>
				<lat>31.014732</lat>
				<lng>121.431605</lng>
			</location>
							<address>上海闵行区沪闵路249号(江川路口)</address>
										<telephone>(021)54700663</telephone>
										<uid>881a28e7ee71c746f942b260</uid>
								</result>
			<result>
			<name>闵行文化公园</name>
			<location>
				<lat>31.172302</lat>
				<lng>121.367451</lng>
			</location>
							<address>吴中路2019</address>
										<telephone>(021)54860606</telephone>
										<uid>0892c818f9eff0680bf5eb7a</uid>
								</result>
			<result>
			<name>闵行公园</name>
			<location>
				<lat>31.01313</lat>
				<lng>121.429678</lng>
			</location>
							<address>闵行区沪闵路249号（江川路口）</address>
										<telephone>(021)54700663</telephone>
										<uid>27ff27321a1ee1aafa22134e</uid>
								</result>
			<result>
			<name>闵行开发区生态公园</name>
			<location>
				<lat>31.007327</lat>
				<lng>121.380736</lng>
			</location>
							<address>上海市闵行区东川路3333号</address>
													<uid>e3794ab5f3baa8da75e5b6d6</uid>
								</result>
			<result>
			<name>闵行体育公园</name>
			<location>
				<lat>31.15132</lat>
				<lng>121.37653</lng>
			</location>
							<address>新镇路456号</address>
													<uid>2e00c5dd958a491dd7851f62</uid>
								</result>
			<result>
			<name>闵行公园-游乐场</name>
			<location>
				<lat>31.014964</lat>
				<lng>121.431425</lng>
			</location>
							<address>沪闵路249</address>
													<uid>7c7b666da3f2d6e354bfff55</uid>
								</result>
			<result>
			<name>闵行公园-西南门</name>
			<location>
				<lat>31.013076</lat>
				<lng>121.429609</lng>
			</location>
							<address>沪闵路249</address>
													<uid>2f1de7874dad28a596ca070c</uid>
								</result>
			<result>
			<name>上海闵行公园精品日租客栈</name>
			<location>
				<lat>31.013966</lat>
				<lng>121.428985</lng>
			</location>
							<address>上海闵行区沪闵路255号我的驿家</address>
													<uid>e3bab68159af34f24e5547b1</uid>
								</result>
			<result>
			<name>闵行滨江湿地公园</name>
			<location>
				<lat>31.019792</lat>
				<lng>121.474004</lng>
			</location>
							<address>上海市闵行区</address>
													<uid>18a947bb8bb311f7e50738f7</uid>
								</result>
			<result>
			<name>闵行开发区生态公园西洋园·企业园</name>
			<location>
				<lat>31.003976</lat>
				<lng>121.382188</lng>
			</location>
							<address>东川路3333</address>
													<uid>bf29b7026d785b9809b93a60</uid>
								</result>
	  </results>
</PlaceSearchResponse>
