<?xml version="1.0" encoding="utf-8" ?> 
<PlaceSearchResponse> 
  <status>0</status>
  <message>ok</message>
  	<total>16</total>
    <results>
			<result>
			<name>闵行滨江湿地公园</name>
			<location>
				<lat>31.019792</lat>
				<lng>121.474004</lng>
			</location>
							<address>上海市闵行区</address>
													<uid>18a947bb8bb311f7e50738f7</uid>
								</result>
			<result>
			<name>陶家塘生态园</name>
			<location>
				<lat>31.016937</lat>
				<lng>121.52026</lng>
			</location>
							<address>上海闵行区浦星公路4777号(丰南路口)</address>
										<telephone>(021)34974777</telephone>
										<uid>594473cc427c7727882fb5f1</uid>
								</result>
			<result>
			<name>江川西路生态园</name>
			<location>
				<lat>30.992391</lat>
				<lng>121.339785</lng>
			</location>
							<address>江川西路3805号</address>
													<uid>a3bb1b4ea27d2e012b3a9f33</uid>
								</result>
			<result>
			<name>盛誉田猕猴桃生态园</name>
			<location>
				<lat>31.08704</lat>
				<lng>121.571361</lng>
			</location>
							<address>上海市闵行区</address>
													<uid>db6291e6291e07e1441a32e9</uid>
								</result>
			<result>
			<name>响水湾生态园</name>
			<location>
				<lat>31.047648</lat>
				<lng>121.562956</lng>
			</location>
							<address>上海市浦东新区先新路41号(近林海公路)</address>
													<uid>5702ee0938193c73dbd89150</uid>
								</result>
			<result>
			<name>闵行开发区生态公园西洋园·企业园</name>
			<location>
				<lat>31.003976</lat>
				<lng>121.382188</lng>
			</location>
							<address>东川路3333</address>
													<uid>bf29b7026d785b9809b93a60</uid>
								</result>
			<result>
			<name>江川西路生态园</name>
			<location>
				<lat>30.992625</lat>
				<lng>121.339633</lng>
			</location>
							<address>马桥1路</address>
													<uid>e4563ec66d297c2eaeee7a80</uid>
								</result>
			<result>
			<name>闵行开发区生态公园</name>
			<location>
				<lat>31.007327</lat>
				<lng>121.380736</lng>
			</location>
							<address>上海市闵行区东川路3333号</address>
													<uid>e3794ab5f3baa8da75e5b6d6</uid>
								</result>
			<result>
			<name>新风生态园</name>
			<location>
				<lat>31.049118</lat>
				<lng>121.559513</lng>
			</location>
							<address>先新路172号</address>
													<uid>79a33872a6f0c5ce4207c11a</uid>
								</result>
			<result>
			<name>青丹香贵原生态庄园（万科店）</name>
			<location>
				<lat>31.164276</lat>
				<lng>121.350519</lng>
			</location>
							<address>闵行区七莘路3333号万科城市花园7区9号103</address>
										<telephone>(021)64614710</telephone>
										<uid>9abe3bf1aa447f7c0bccdddc</uid>
								</result>
	  </results>
</PlaceSearchResponse>
