<?xml version="1.0" encoding="utf-8" ?> 
<PlaceSearchResponse> 
  <status>0</status>
  <message>ok</message>
  	<total>127</total>
    <results>
			<result>
			<name>青浦大观园减振器厂</name>
			<location>
				<lat>31.118177</lat>
				<lng>120.908302</lng>
			</location>
							<address>许七村2008</address>
													<uid>9ee7cc78a60a637316c905ce</uid>
								</result>
			<result>
			<name>大观园农家乐</name>
			<location>
				<lat>31.085007</lat>
				<lng>120.914249</lng>
			</location>
							<address>上海青浦区金商公路900号(近民俗村)</address>
										<telephone>13022145694</telephone>
										<uid>cde9e2c7ae31b2ade81e9727</uid>
								</result>
			<result>
			<name>上海大观园办公室</name>
			<location>
				<lat>31.078412</lat>
				<lng>120.916808</lng>
			</location>
							<address>上海市青浦区金商公路900号青浦大观园梅园隔壁</address>
													<uid>65de5c8e5c420385b9df8fbe</uid>
								</result>
			<result>
			<name>大观园咨询中心</name>
			<location>
				<lat>31.077615</lat>
				<lng>120.914491</lng>
			</location>
							<address>青浦城西15公里淀山湖风景区附近</address>
													<uid>9eed74b227f7ed9124d2bbbc</uid>
								</result>
			<result>
			<name>大观园梅园农庄</name>
			<location>
				<lat>31.081891</lat>
				<lng>120.918394</lng>
			</location>
							<address>上海青浦区金商公路728号(近大观园)</address>
										<telephone>13564030355</telephone>
										<uid>bf4a21e58362c9af42d63e68</uid>
								</result>
			<result>
			<name>大观园书斋</name>
			<location>
				<lat>31.081497</lat>
				<lng>120.913601</lng>
			</location>
							<address>上海市青浦区金商公路701号上海大观园内</address>
										<telephone>(021)59262089</telephone>
										<uid>ade61afdf7708f9b29fc48d8</uid>
								</result>
			<result>
			<name>上海大观园摄影部</name>
			<location>
				<lat>31.081798</lat>
				<lng>120.913377</lng>
			</location>
							<address>上海市青浦区金商公路701号上海大观园内</address>
													<uid>c18db58f0e1197e72fb96d42</uid>
								</result>
			<result>
			<name>上海大观园市场拓展部</name>
			<location>
				<lat>31.077994</lat>
				<lng>120.914805</lng>
			</location>
							<address>上海市青浦区金商公路701号上海大观园内</address>
													<uid>ca361f9321fc1993fe0eb062</uid>
								</result>
			<result>
			<name>综艺大观园</name>
			<location>
				<lat>31.072914</lat>
				<lng>120.921184</lng>
			</location>
							<address>青浦区金商公路351号</address>
										<telephone>(021)62088050</telephone>
										<uid>ff4d9011ef82aeee9c9d682a</uid>
								</result>
			<result>
			<name>上海大观园园林绿化工程有限公司</name>
			<location>
				<lat>31.07869</lat>
				<lng>120.917509</lng>
			</location>
							<address>上海市青浦区金商公路701号上海大观园内</address>
													<uid>8d128eb48666a1172802e147</uid>
								</result>
	  </results>
</PlaceSearchResponse>
