<?xml version="1.0" encoding="utf-8" ?> 
<PlaceSearchResponse> 
  <status>0</status>
  <message>ok</message>
  	<total>55</total>
    <results>
			<result>
			<name>音乐广场</name>
			<location>
				<lat>31.251111</lat>
				<lng>121.449601</lng>
			</location>
							<address>普陀区江宁路1220弄(近普陀路)</address>
													<uid>e3082848f80fd4beb34c49cb</uid>
								</result>
			<result>
			<name>音乐广场</name>
			<location>
				<lat>31.220675</lat>
				<lng>121.553249</lng>
			</location>
							<address>上海市浦东新区锦绣路1001号世纪公园内</address>
													<uid>2b5c07fdaeac5a7f4c6d464d</uid>
								</result>
			<result>
			<name>音乐广场-南门</name>
			<location>
				<lat>31.250803</lat>
				<lng>121.450384</lng>
			</location>
							<address>长寿路78</address>
													<uid>397fee8f50183aca8c55ec7c</uid>
								</result>
			<result>
			<name>音乐广场-西门</name>
			<location>
				<lat>31.251119</lat>
				<lng>121.44962</lng>
			</location>
							<address>江宁路1220弄1-12号</address>
													<uid>d31017969fac988032870a3d</uid>
								</result>
			<result>
			<name>音乐广场-东二门</name>
			<location>
				<lat>31.251675</lat>
				<lng>121.450905</lng>
			</location>
							<address>江宁路1220弄</address>
													<uid>c6aedc1c16b685e730621236</uid>
								</result>
			<result>
			<name>音乐广场-东北门</name>
			<location>
				<lat>31.251953</lat>
				<lng>121.450892</lng>
			</location>
							<address>上海市普陀区</address>
													<uid>2bdb6d0252947afd12882481</uid>
								</result>
			<result>
			<name>音乐广场-东一门</name>
			<location>
				<lat>31.251343</lat>
				<lng>121.45104</lng>
			</location>
							<address>江宁路1220弄1-12号</address>
													<uid>3181a322939ddad4a2d23026</uid>
								</result>
			<result>
			<name>音乐广场-西北门</name>
			<location>
				<lat>31.251953</lat>
				<lng>121.449281</lng>
			</location>
							<address>上海市普陀区</address>
													<uid>2557bca4dbba52f98d772742</uid>
								</result>
			<result>
			<name>音乐广场昌化路门</name>
			<location>
				<lat>31.251335</lat>
				<lng>121.451013</lng>
			</location>
							<address>江宁路1220弄1～12号</address>
													<uid>2848ffd6d2da4e0e48cc4acb</uid>
								</result>
			<result>
			<name>音乐广场</name>
			<location>
				<lat>31.371063</lat>
				<lng>121.491741</lng>
			</location>
							<address>上海市宝山区</address>
													<uid>7e2a0cc93144ae999ff77996</uid>
								</result>
	  </results>
</PlaceSearchResponse>
