<?xml version="1.0" encoding="utf-8" ?> 
<PlaceSearchResponse> 
  <status>0</status>
  <message>ok</message>
  	<total>174</total>
    <results>
			<result>
			<name>上海马戏城</name>
			<location>
				<lat>31.285845</lat>
				<lng>121.458503</lng>
			</location>
							<address>地铁1号线</address>
													<uid>ab926729e5f1bd4cf703b8d9</uid>
								</result>
			<result>
			<name>上海马戏城</name>
			<location>
				<lat>31.284123</lat>
				<lng>121.457807</lng>
			</location>
							<address>上海市长安路1138号中房华东大厦20c</address>
										<telephone>(021)56656622</telephone>
										<uid>af5460ab777bc8728bb9883a</uid>
								</result>
			<result>
			<name>上海马戏城站1号出口(地铁1号线)</name>
			<location>
				<lat>31.286206</lat>
				<lng>121.459028</lng>
			</location>
							<address>上海市闸北区</address>
													<uid>dc0f0adc0898af5df8221366</uid>
								</result>
			<result>
			<name>中国工商银行(马戏城支行)</name>
			<location>
				<lat>31.286646</lat>
				<lng>121.45902</lng>
			</location>
							<address>闸北区共和新路2411号广中路口(共和新路广中西路)</address>
										<telephone>(021)56030351</telephone>
										<uid>0a15c7ec16d8abfded74f8ed</uid>
								</result>
			<result>
			<name>上海马戏城售票处</name>
			<location>
				<lat>31.284393</lat>
				<lng>121.457911</lng>
			</location>
							<address>共和新路2266号</address>
										<telephone>(021)66300000,(021)66527750</telephone>
										<uid>fcee2f04ae5a310e21f017c6</uid>
								</result>
			<result>
			<name>上海马戏城-停车场</name>
			<location>
				<lat>31.284416</lat>
				<lng>121.457586</lng>
			</location>
							<address>上海市闸北区</address>
													<uid>3dc9befdc6843f6bbfa24085</uid>
								</result>
			<result>
			<name>vdance（马戏城店）</name>
			<location>
				<lat>31.281993</lat>
				<lng>121.459761</lng>
			</location>
							<address>闸北区共和新路2023号</address>
										<telephone>(021)60641117</telephone>
										<uid>af9f42cd769aed499f09f700</uid>
								</result>
			<result>
			<name>v-dance(马戏城店)</name>
			<location>
				<lat>31.28896</lat>
				<lng>121.458603</lng>
			</location>
							<address>共和新路2623号2楼9室</address>
										<telephone>(021)60641118</telephone>
										<uid>8e31690d7527ab148e1a89af</uid>
								</result>
			<result>
			<name>上海马戏城中剧场</name>
			<location>
				<lat>31.283729</lat>
				<lng>121.456454</lng>
			</location>
							<address>共和新路2266号马戏城内</address>
										<telephone>(021)66520693</telephone>
										<uid>eb36750356d0e21a00ec01ff</uid>
								</result>
			<result>
			<name>中国农业银行(马戏城支行)</name>
			<location>
				<lat>31.286005</lat>
				<lng>121.45942</lng>
			</location>
							<address>广中路977号(近共和新路、地铁1号线马戏城站)</address>
										<telephone>(021)56035237</telephone>
										<uid>61f634f6abaa53056a49f386</uid>
								</result>
	  </results>
</PlaceSearchResponse>
