<?xml version="1.0" encoding="utf-8" ?> 
<PlaceSearchResponse> 
  <status>0</status>
  <message>ok</message>
  	<total>37</total>
    <results>
			<result>
			<name>马陆塘</name>
			<location>
				<lat>31.36014</lat>
				<lng>121.329847</lng>
			</location>
							<address>上海市嘉定区</address>
													<uid>56e88cbab3d65366a4c7567b</uid>
								</result>
			<result>
			<name>马陆塘</name>
			<location>
				<lat>31.331181</lat>
				<lng>121.268835</lng>
			</location>
							<address>上海市嘉定区</address>
													<uid>f1b10a529fa174d00e3ddaa5</uid>
								</result>
			<result>
			<name>马陆塘小区</name>
			<location>
				<lat>31.340326</lat>
				<lng>121.29111</lng>
			</location>
							<address>马陆塘街160弄</address>
													<uid>2e99b15bb671be5fc61e518d</uid>
								</result>
			<result>
			<name>马陆塘街集贸市场</name>
			<location>
				<lat>31.340049</lat>
				<lng>121.29048</lng>
			</location>
							<address>马陆塘街188</address>
													<uid>750ec165d86eb4554c3a5973</uid>
								</result>
			<result>
			<name>上海现美装潢设计有限公司</name>
			<location>
				<lat>31.340326</lat>
				<lng>121.291107</lng>
			</location>
							<address>上海市嘉定区马陆镇马陆塘街160弄</address>
										<telephone>13916394201</telephone>
										<uid>da5a56d32174ac94d7851f46</uid>
								</result>
			<result>
			<name>零食多</name>
			<location>
				<lat>31.339771</lat>
				<lng>121.289796</lng>
			</location>
							<address>马陆塘街226</address>
													<uid>8a62795a63b5b38146e27494</uid>
								</result>
			<result>
			<name>美乐电脑制作</name>
			<location>
				<lat>31.339709</lat>
				<lng>121.289722</lng>
			</location>
							<address>马陆塘街240号附近</address>
													<uid>68bac456830c7a0b4bcc4a67</uid>
								</result>
			<result>
			<name>戈弋百货贸易商行</name>
			<location>
				<lat>31.339756</lat>
				<lng>121.289821</lng>
			</location>
							<address>马陆塘街240号附近</address>
													<uid>3b22075efdf2b85c5bf6bef0</uid>
								</result>
			<result>
			<name>安徽名流</name>
			<location>
				<lat>31.339732</lat>
				<lng>121.289722</lng>
			</location>
							<address>马陆塘街228号</address>
										<telephone>18301843530</telephone>
										<uid>697804224c66ac026fc02c8e</uid>
								</result>
	  </results>
</PlaceSearchResponse>
