<?xml version="1.0" encoding="utf-8" ?> 
<PlaceSearchResponse> 
  <status>0</status>
  <message>ok</message>
  	<total>79</total>
    <results>
			<result>
			<name>马陆公园</name>
			<location>
				<lat>31.331998</lat>
				<lng>121.285328</lng>
			</location>
							<address>上海市嘉定区马陆镇育英街455号</address>
										<telephone>(021)59109566</telephone>
										<uid>5ce2637d54f21450ae31e5e8</uid>
								</result>
			<result>
			<name>嘉定古树公园</name>
			<location>
				<lat>31.320469</lat>
				<lng>121.252133</lng>
			</location>
							<address>嘉定区安亭镇光明村泰海路230号</address>
										<telephone>(021)63366016</telephone>
										<uid>75d0881ac610014c3a04b1e9</uid>
								</result>
			<result>
			<name>嘉定儿童乐园</name>
			<location>
				<lat>31.389321</lat>
				<lng>121.247949</lng>
			</location>
							<address>嘉定区梅园路226号(近嘉定体育馆)</address>
										<telephone>(021)59531576</telephone>
										<uid>08a482f79b33b2478715412e</uid>
								</result>
			<result>
			<name>马陆葡萄主题公园</name>
			<location>
				<lat>31.386385</lat>
				<lng>121.323567</lng>
			</location>
							<address>嘉定区马陆镇大治路9号（近A30浏翔公路口）</address>
										<telephone>(021)59511816</telephone>
										<uid>013203b3f95a250b32f71d19</uid>
								</result>
			<result>
			<name>马陆葡萄主题公园</name>
			<location>
				<lat>31.387356</lat>
				<lng>121.321911</lng>
			</location>
							<address>嘉定区马陆镇大治路29号（近浏翔公路）</address>
										<telephone>(021)59511811</telephone>
										<uid>be6bb8a59f8325920bccdd95</uid>
								</result>
			<result>
			<name>上海马陆葡萄公园有限公司</name>
			<location>
				<lat>31.387341</lat>
				<lng>121.322087</lng>
			</location>
							<address>大治路29</address>
										<telephone>(021)59511816</telephone>
										<uid>42c7ff88c8d0f6555f17c3c6</uid>
								</result>
			<result>
			<name>马陆葡萄园</name>
			<location>
				<lat>31.400233</lat>
				<lng>121.316442</lng>
			</location>
							<address>嘉定区马陆主题公园斜对面刘石路到张顾路向东张乔葡萄种植园区2517号(马陆葡萄主题公园)</address>
										<telephone>13482637421</telephone>
										<uid>0cec5906191b1e4f240bd00f</uid>
								</result>
			<result>
			<name>嘉定紫藤园</name>
			<location>
				<lat>31.384967</lat>
				<lng>121.265245</lng>
			</location>
							<address>博乐路(近嘉定客运中心)</address>
													<uid>35debf29c1f81a45a6da39ea</uid>
								</result>
			<result>
			<name>汇龙潭公园</name>
			<location>
				<lat>31.387402</lat>
				<lng>121.260828</lng>
			</location>
							<address>嘉定区嘉定镇塔城路299号</address>
										<telephone>(021)59529604</telephone>
										<uid>e56bf5e34f3634390782c207</uid>
								</result>
			<result>
			<name>马陆明德葡萄园</name>
			<location>
				<lat>31.39883</lat>
				<lng>121.319914</lng>
			</location>
							<address>嘉定区南刘路2609号(近马陆葡萄主题公园)</address>
													<uid>3cfbc2d9a67db93fa21de966</uid>
								</result>
	  </results>
</PlaceSearchResponse>
