<?xml version="1.0" encoding="utf-8" ?> 
<PlaceSearchResponse> 
  <status>0</status>
  <message>ok</message>
  	<total>22</total>
    <results>
			<result>
			<name>鹿都国际商业广场</name>
			<location>
				<lat>31.010445</lat>
				<lng>121.241105</lng>
			</location>
							<address>上海市松江区松汇中路568号</address>
										<telephone>(021)57820505</telephone>
										<uid>15a9381073500dbc15c8f6ba</uid>
								</result>
			<result>
			<name>鹿都国际商业广场a座</name>
			<location>
				<lat>31.010344</lat>
				<lng>121.241075</lng>
			</location>
							<address>松汇中路568号</address>
													<uid>ddd00d507e78f1f69222e07e</uid>
								</result>
			<result>
			<name>鹿都国际商业广场b座</name>
			<location>
				<lat>31.010344</lat>
				<lng>121.241075</lng>
			</location>
							<address>松江区岳阳街道松汇中路568号</address>
													<uid>42f0e55aa44e2eb5eb1e9743</uid>
								</result>
			<result>
			<name>胜家时尚缝艺吧(鹿都国际商业广场店)</name>
			<location>
				<lat>31.010128</lat>
				<lng>121.241167</lng>
			</location>
							<address>松江区松汇中路568号鹿都国际商业广场内(近人民北路)</address>
													<uid>d5198223ac10227d02294f67</uid>
								</result>
			<result>
			<name>婴悦之家</name>
			<location>
				<lat>31.010128</lat>
				<lng>121.241176</lng>
			</location>
							<address>松江区鹿都国际商业广场</address>
													<uid>faca3eaa203cca82b6f42f7c</uid>
								</result>
			<result>
			<name>艺通手机航母店</name>
			<location>
				<lat>31.010437</lat>
				<lng>121.241125</lng>
			</location>
							<address>鹿都国际商业广场-1楼</address>
													<uid>d48ed5943cd0dcc61f389409</uid>
								</result>
			<result>
			<name>韩国新罗妤SPA养生馆</name>
			<location>
				<lat>31.010128</lat>
				<lng>121.241167</lng>
			</location>
							<address>松江区鹿都国际商业广场</address>
													<uid>5e53af1ab034de214151c07c</uid>
								</result>
			<result>
			<name>木果果木</name>
			<location>
				<lat>31.01043</lat>
				<lng>121.240913</lng>
			</location>
							<address>鹿都国际商业广场1楼</address>
													<uid>37d60a46f835211e1f1d11a1</uid>
								</result>
			<result>
			<name>德克士（鹿都国际商业广场店）</name>
			<location>
				<lat>31.010344</lat>
				<lng>121.241079</lng>
			</location>
							<address>上海市松江区松汇中路568号鹿都国际购物广场2层</address>
										<telephone>(021)67733213</telephone>
										<uid>5eadf578bce85ee4e8e58274</uid>
								</result>
			<result>
			<name>东方骆驼(松江鹿都国际广场店)</name>
			<location>
				<lat>31.010445</lat>
				<lng>121.241105</lng>
			</location>
							<address>松汇中路568号上海鹿都国际商业广场a座-1层</address>
													<uid>7064ffe95a57d38095f08c9f</uid>
								</result>
	  </results>
</PlaceSearchResponse>
