<?xml version="1.0" encoding="utf-8" ?> 
<PlaceSearchResponse> 
  <status>0</status>
  <message>ok</message>
  	<total>93</total>
    <results>
			<result>
			<name>上海黄浦剧场</name>
			<location>
				<lat>31.244273</lat>
				<lng>121.482094</lng>
			</location>
							<address>北京东路780号近西藏南路</address>
										<telephone>021-56694054</telephone>
										<uid>9d3bf834bbec87332806cef3</uid>
								</result>
			<result>
			<name>黄浦剧场</name>
			<location>
				<lat>31.244281</lat>
				<lng>121.482094</lng>
			</location>
							<address>黄浦区北京东路780号（近贵州路）</address>
										<telephone>(021)63508739</telephone>
										<uid>f20e51f14002782a0782c2aa</uid>
								</result>
			<result>
			<name>黄浦区妇幼保健院</name>
			<location>
				<lat>31.225461</lat>
				<lng>121.491428</lng>
			</location>
							<address>黄浦区中华路1525号4楼（近复兴东路）</address>
										<telephone>(021)63738899-838</telephone>
										<uid>93e74f6540c2b18c3686f45e</uid>
								</result>
			<result>
			<name>大顺文化艺术剧团(黄浦区店)</name>
			<location>
				<lat>31.232502</lat>
				<lng>121.497491</lng>
			</location>
							<address>黄浦区城隍庙旧校场路69号(近地铁10号线支线/10号线豫园站)</address>
										<telephone>15026926885</telephone>
										<uid>f10078c6fd152b5585420e3f</uid>
								</result>
			<result>
			<name>大剧院食堂</name>
			<location>
				<lat>31.235096</lat>
				<lng>121.478372</lng>
			</location>
							<address>黄浦区人民大道300号大剧院B1（近人民广场）</address>
													<uid>24d055087c2759b612882452</uid>
								</result>
			<result>
			<name>乐透社相声</name>
			<location>
				<lat>31.244281</lat>
				<lng>121.482103</lng>
			</location>
							<address>黄浦区北京东路780号笑天地黄浦剧场（近贵州路）</address>
													<uid>fdac86f779acc4d98433048b</uid>
								</result>
			<result>
			<name>上海儿童艺术剧场(上汽荣威儿童文化中心)</name>
			<location>
				<lat>31.202291</lat>
				<lng>121.501679</lng>
			</location>
							<address>黄浦区苗江路800号</address>
										<telephone>(021)62537171</telephone>
										<uid>82f622f8d46fa396d13ce346</uid>
								</result>
			<result>
			<name>大光明剧场(儿艺店)</name>
			<location>
				<lat>31.202299</lat>
				<lng>121.501677</lng>
			</location>
							<address>上海市黄浦区苗江路800号</address>
										<telephone>021-63391622</telephone>
										<uid>88a142c136fba132fea778ed</uid>
								</result>
			<result>
			<name>共舞台·时空剧院</name>
			<location>
				<lat>31.234663</lat>
				<lng>121.485803</lng>
			</location>
							<address>上海黄浦区延安东路433号共舞台2楼近大世界</address>
													<uid>8eb48fa1cc5c2cbff32d8319</uid>
								</result>
			<result>
			<name>星影5D360超立体影院</name>
			<location>
				<lat>31.230418</lat>
				<lng>121.498695</lng>
			</location>
							<address>黄浦区三牌楼路8号1楼(近昼锦路)</address>
										<telephone>(021)33318566</telephone>
										<uid>6c6a59df68815ccd8f55ec90</uid>
								</result>
	  </results>
</PlaceSearchResponse>
