<?xml version="1.0" encoding="utf-8" ?> 
<PlaceSearchResponse> 
  <status>0</status>
  <message>ok</message>
  	<total>181</total>
    <results>
			<result>
			<name>黄浦体育馆</name>
			<location>
				<lat>31.241788</lat>
				<lng>121.490717</lng>
			</location>
							<address>黄浦区山东中路311号(近九江路)</address>
										<telephone>(021)63515223</telephone>
										<uid>53cebd507ba20d602a02e15a</uid>
								</result>
			<result>
			<name>黄浦体育馆</name>
			<location>
				<lat>31.241965</lat>
				<lng>121.490718</lng>
			</location>
							<address>黄浦区山东中路311号（九江路山东中路）</address>
										<telephone>(021)63515223</telephone>
										<uid>8114c5742626d5a5abf0cda9</uid>
								</result>
			<result>
			<name>黄浦体育馆羽毛球场</name>
			<location>
				<lat>31.241965</lat>
				<lng>121.490718</lng>
			</location>
							<address>黄浦区山东中路311号黄浦体育馆4楼(近汉口路)</address>
										<telephone>(021)63515223</telephone>
										<uid>f9fd606269650b060f0e6b63</uid>
								</result>
			<result>
			<name>黄浦工人体育馆篮球场</name>
			<location>
				<lat>31.212784</lat>
				<lng>121.510341</lng>
			</location>
							<address>黄浦区外马路1288号(南浦大桥浦西)</address>
										<telephone>13701645940</telephone>
										<uid>befb961b3c007fdee50738ee</uid>
								</result>
			<result>
			<name>黄浦区工人体育馆</name>
			<location>
				<lat>31.21334</lat>
				<lng>121.51017</lng>
			</location>
							<address>外马路1288号</address>
										<telephone>(021)63311005</telephone>
										<uid>8fa14fc30a0bae13f6eafc8f</uid>
								</result>
			<result>
			<name>黄浦体育馆-停车场</name>
			<location>
				<lat>31.241325</lat>
				<lng>121.490369</lng>
			</location>
							<address>黄浦区汉口路340号（汉口路山西南路）</address>
													<uid>8b82da19fbda20313fe231fb</uid>
								</result>
			<result>
			<name>黄浦工人体育馆乒乓球馆</name>
			<location>
				<lat>31.212784</lat>
				<lng>121.510341</lng>
			</location>
							<address>黄浦区外马路1288号(近南浦大桥)</address>
										<telephone>(021)63311005,15801959676</telephone>
										<uid>9270157e9e8fe8862b201aee</uid>
								</result>
			<result>
			<name>黄浦区体育局</name>
			<location>
				<lat>31.213201</lat>
				<lng>121.470629</lng>
			</location>
							<address>建国西路135号卢湾区体育中心综合楼</address>
										<telephone>(021)54663737</telephone>
										<uid>e3a7fd1398fc1f5329b97c96</uid>
								</result>
			<result>
			<name>黄浦区工人体育馆保龄球馆</name>
			<location>
				<lat>31.212784</lat>
				<lng>121.510337</lng>
			</location>
							<address>黄浦区外马路1288号体育楼2楼(近南浦大桥)</address>
										<telephone>(021)63311030</telephone>
										<uid>de9abdd03313d3d60482c24d</uid>
								</result>
			<result>
			<name>黄浦区工人体育馆台球馆</name>
			<location>
				<lat>31.212784</lat>
				<lng>121.510341</lng>
			</location>
							<address>黄浦区外马路1288号体育楼2楼(近南浦大桥)</address>
										<telephone>(021)63311099</telephone>
										<uid>02811f41c5cc060872210b47</uid>
								</result>
	  </results>
</PlaceSearchResponse>
